fecha,dia,year,horario,festividad,tipo_accidente,lesividad,meteo,distrito,direccion,lon,lat
2019-01-01 14:00:00,2019-01-01 00:00:00,2019,Tarde,Festivo,Colision,Moderada,Despejado,SALAMANCA,CALLE CASTELLO / CALLE DON RAMON DE LA CRUZ Madrid,-3.681209,40.4289896
2019-01-02 21:00:00,2019-01-02 00:00:00,2019,Noche,Laborable,Colision,Grave,Despejado,HORTALEZA,AVDA. GRAN VIA DE HORTALEZA / GTA. LUIS ROSALES Madrid,-3.6545272,40.4669207
2019-01-03 10:00:00,2019-01-03 00:00:00,2019,Mañana,Laborable,Caida,Moderada,Despejado,MONCLOA-ARAVACA,CTRA. DEHESA DE LA VILLA 1 Madrid,-3.7207176,40.4581905
2019-01-08 13:00:00,2019-01-08 00:00:00,2019,Tarde,Laborable,Caida,Moderada,Despejado,FUENCARRAL-EL PARDO,C/ MONASTERIO DE ARLANZA-AV. SANTUARIO DE VALVERDE Madrid,-3.6938236,40.5112874
2019-01-09 13:00:00,2019-01-09 00:00:00,2019,Tarde,Laborable,Colision,Leve,Despejado,CENTRO,CALLE GRAN VIA 66 Madrid,-3.7089378,40.4224128
2019-01-10 20:00:00,2019-01-10 00:00:00,2019,Tarde,Laborable,Caida,Moderada,Despejado,ARGANZUELA,PASEO. JUAN ANTONIO VALLEJO-NAJERA BOTAS / CALLE GASOMETRO Madrid,-3.713856599999999,40.403685
2019-01-11 16:00:00,2019-01-11 00:00:00,2019,Tarde,Laborable,Colision,Leve,Despejado,CENTRO,CALLE GRAN VIA / CALLE SAN BERNARDO Madrid,-3.7078966,40.4215151
2019-01-12 22:00:00,2019-01-12 00:00:00,2019,Noche,Vispera,Imprudencia,Moderada,Despejado,CARABANCHEL,AVDA. POBLADOS / CALLE SECOYA Madrid,-3.74219,40.372737
2019-01-14 20:00:00,2019-01-14 00:00:00,2019,Tarde,Laborable,Caida,Moderada,Despejado,FUENCARRAL-EL PARDO,PASEO. EL PARDO 37 Madrid,-3.6932108,40.41204339999999
2019-01-14 11:00:00,2019-01-14 00:00:00,2019,Mañana,Laborable,Caida,Leve,Despejado,CENTRO,CALLE FLORA 1 Madrid,-3.7075094,40.4180985
2019-01-16 15:00:00,2019-01-16 00:00:00,2019,Tarde,Laborable,Caida,Leve,Despejado,CHAMBERÍ,PLAZA. CONDE DEL VALLE DE SUCHIL 3 Madrid,-3.7077541,40.4304221
2019-01-17 20:00:00,2019-01-17 00:00:00,2019,Tarde,Laborable,Colision,Leve,Despejado,CENTRO,CALLE ARENAL / CALLE DONADOS Madrid,-3.7085565,40.4177835
2019-01-17 16:00:00,2019-01-17 00:00:00,2019,Tarde,Laborable,Colision,Leve,Despejado,CHAMARTÍN,CALLE SERRANO 141 Madrid,-3.686019200000001,40.44436049999999
2019-01-17 06:00:00,2019-01-17 00:00:00,2019,Mañana,Laborable,Imprudencia,Moderada,Despejado,RETIRO,CALLE DOCE DE OCTUBRE 26 Madrid,-3.6743935,40.4158848
2019-01-18 13:00:00,2019-01-18 00:00:00,2019,Tarde,Laborable,Colision,Moderada,Despejado,VICÁLVARO,CALLE VILLABLANCA 11 Madrid,-3.6071373,40.40879710000001
2019-01-18 08:00:00,2019-01-18 00:00:00,2019,Mañana,Laborable,Caida,Moderada,Despejado,CENTRO,CALLE GENOVA 2 Madrid,-3.6910144,40.42574370000001
2019-01-19 21:00:00,2019-01-19 00:00:00,2019,Noche,Vispera,Colision,Leve,Lluvia,SALAMANCA,PLAZA. INDEPENDENCIA / CALLE ALCALA Madrid,-3.6882209,40.4199114
2019-01-19 11:00:00,2019-01-19 00:00:00,2019,Mañana,Vispera,Caida,Moderada,Despejado,FUENCARRAL-EL PARDO,CTRA. EL PARDO A FUENCARRAL Madrid,-3.7450612,40.5100311
2019-01-21 17:00:00,2019-01-21 00:00:00,2019,Tarde,Laborable,Colision,Moderada,Despejado,HORTALEZA,CALLE SAN ENRIQUE DE OSSO 36 Madrid,-3.6420714,40.5053001
2019-01-25 09:00:00,2019-01-25 00:00:00,2019,Mañana,Laborable,Colision,Leve,Despejado,RETIRO,"CALLE ALFONSO XI , CALLE ALCALA Madrid",-3.690491,40.4196967
2019-01-25 04:00:00,2019-01-25 00:00:00,2019,Noche,Laborable,Colision,Leve,Despejado,CENTRO,CALLE GRAN VIA 78 Madrid,-3.710212499999999,40.4233585
2019-01-27 16:00:00,2019-01-27 00:00:00,2019,Tarde,Festivo,Imprudencia,Moderada,Despejado,CENTRO,CALLE ALCALA 44 Madrid,-3.6960347,40.4184039
2019-01-27 16:00:00,2019-01-27 00:00:00,2019,Tarde,Festivo,Imprudencia,Leve,Despejado,CENTRO,CALLE ALCALA 44 Madrid,-3.6960347,40.4184039
2019-01-29 16:00:00,2019-01-29 00:00:00,2019,Tarde,Laborable,Caida,Moderada,Lluvia,CENTRO,PASEO. RECOLETOS 23 Madrid,-3.6923964,40.42272420000001
2019-01-30 13:00:00,2019-01-30 00:00:00,2019,Tarde,Laborable,Colision,Moderada,Despejado,CARABANCHEL,AVDA. CARABANCHEL ALTO 122 Madrid,-3.7537655,40.3655693
2019-02-01 02:00:00,2019-02-01 00:00:00,2019,Noche,Laborable,Colision,Leve,Lluvia,CHAMBERÍ,CALLE SANTA ENGRACIA / CALLE RIOS ROSAS Madrid,-3.701801,40.4420347
2019-02-01 00:00:00,2019-02-01 00:00:00,2019,Noche,Laborable,Colision,Leve,Lluvia,SALAMANCA,CALLE FRANCISCO SANTOS / CALLE MARTINEZ IZQUIERDO Madrid,-3.667172,40.4346816
2019-02-02 00:00:00,2019-02-02 00:00:00,2019,Noche,Vispera,Caida,Moderada,Despejado,SALAMANCA,CALLE MARIA DE MOLINA 18 Madrid,-3.686911899999999,40.4376694
2019-02-06 20:00:00,2019-02-06 00:00:00,2019,Tarde,Laborable,Colision,Leve,Despejado,CHAMARTÍN,CALLE AGUSTIN DE FOXA 30 Madrid,-3.6852628,40.4700088
2019-02-06 18:00:00,2019-02-06 00:00:00,2019,Tarde,Laborable,Colision,Leve,Despejado,SALAMANCA,CALLE ALCALA 173 Madrid,-3.6722076,40.4265899
2019-02-06 17:00:00,2019-02-06 00:00:00,2019,Tarde,Laborable,Caida,Leve,Despejado,CENTRO,CALLE GRAN VIA / CALLE ALCALA Madrid,-3.6966751,40.4186387
2019-02-06 10:00:00,2019-02-06 00:00:00,2019,Mañana,Laborable,Colision,Moderada,Despejado,SALAMANCA,CALLE JUAN BRAVO 17 Madrid,-3.6816768,40.4330227
2019-02-06 08:00:00,2019-02-06 00:00:00,2019,Mañana,Laborable,Imprudencia,Moderada,Despejado,FUENCARRAL-EL PARDO,AVDA. LLANO CASTELLANO / AVDA. CARDENAL HERRERA ORIA Madrid,-3.6854183,40.48855959999999
2019-02-07 19:00:00,2019-02-07 00:00:00,2019,Tarde,Laborable,Caida,Leve,Despejado,CHAMARTÍN,CALLE PRINCIPE DE VERGARA / GTA. LOPEZ DE HOYOS Madrid,-3.679689999999999,40.4409
2019-02-08 22:00:00,2019-02-08 00:00:00,2019,Noche,Laborable,Caida,Leve,Despejado,CENTRO,CALLE ALCALA 13 Madrid,-3.7007596,40.4179651
2019-02-08 22:00:00,2019-02-08 00:00:00,2019,Noche,Laborable,Colision,Leve,Despejado,CENTRO,CALLE MESON DE PAREDES / CALLE JUANELO Madrid,-3.705046,40.4113828
2019-02-10 16:00:00,2019-02-10 00:00:00,2019,Tarde,Festivo,Colision,Leve,Despejado,RETIRO,PASEO. REINA CRISTINA / CALLE ANDRES TORREJON Madrid,-3.6820606,40.4069928
2019-02-11 16:00:00,2019-02-11 00:00:00,2019,Tarde,Laborable,Colision,Leve,Despejado,SALAMANCA,CALLE SERRANO 8 Madrid,-3.6882153,40.4216448
2019-02-11 14:00:00,2019-02-11 00:00:00,2019,Tarde,Laborable,Colision,Moderada,Despejado,SALAMANCA,CALLE ALCALA 101 Madrid,-3.6834493,40.4215419
2019-02-11 09:00:00,2019-02-11 00:00:00,2019,Mañana,Laborable,Colision,Leve,Despejado,CHAMBERÍ,CALLE MIGUEL ANGEL 29 Madrid,-3.6917622,40.4376104
2019-02-12 22:00:00,2019-02-12 00:00:00,2019,Noche,Laborable,Colision,Moderada,Despejado,CENTRO,PASEO. PRADO 2 Madrid,-3.693998600000001,40.41884930000001
2019-02-12 19:00:00,2019-02-12 00:00:00,2019,Tarde,Laborable,Colision,Leve,Despejado,CHAMBERÍ,GTA. QUEVEDO / CALLE SAN BERNARDO Madrid,-3.7044863,40.4335071
2019-02-13 18:00:00,2019-02-13 00:00:00,2019,Tarde,Laborable,Imprudencia,Moderada,Despejado,HORTALEZA,CALLE SILVANO / CALLE FRANCISCO MOSQUEDA Madrid,-3.628083299999999,40.4626547
2019-02-13 14:00:00,2019-02-13 00:00:00,2019,Tarde,Laborable,Colision,Moderada,Despejado,SALAMANCA,CALLE CONDE DE PEÑALVER 38 Madrid,-3.6749609,40.4290821
2019-02-14 20:00:00,2019-02-14 00:00:00,2019,Tarde,Laborable,Imprudencia,Leve,Despejado,CHAMBERÍ,CALLE SANTA ENGRACIA 6 Madrid,-3.6955671,40.4286654
2019-02-14 20:00:00,2019-02-14 00:00:00,2019,Tarde,Laborable,Imprudencia,Leve,Despejado,CHAMBERÍ,CALLE SANTA ENGRACIA 6 Madrid,-3.6955671,40.4286654
2019-02-14 18:00:00,2019-02-14 00:00:00,2019,Tarde,Laborable,Caida,Leve,Despejado,RETIRO,AVDA. MENENDEZ PELAYO 38 Madrid,-3.6807097,40.4051017
2019-02-14 14:00:00,2019-02-14 00:00:00,2019,Tarde,Laborable,Colision,Leve,Despejado,RETIRO,PASEO. INFANTA ISABEL 17 Madrid,-3.6874172,40.4069569
2019-02-15 14:00:00,2019-02-15 00:00:00,2019,Tarde,Laborable,Caida,Leve,Despejado,RETIRO,GTA. ANGEL CAIDO 4 Madrid,-3.6878257,40.4098609
2019-02-16 17:00:00,2019-02-16 00:00:00,2019,Tarde,Vispera,Caida,Moderada,Despejado,ARGANZUELA,PASEO. CHOPERA 2 Madrid,-3.7022263,40.39584910000001
2019-02-16 14:00:00,2019-02-16 00:00:00,2019,Tarde,Vispera,Colision,Leve,Despejado,CENTRO,RONDA DE VALENCIA CON GLORIETA DE EMBAJADORES Madrid,-3.7022481,40.40512409999999
2019-02-17 09:00:00,2019-02-17 00:00:00,2019,Mañana,Festivo,Colision,Grave,Despejado,CARABANCHEL,AVDA. POBLADOS / CALLE ANTONIO ROMERO Madrid,-3.7312235,40.3734001
2019-02-20 08:00:00,2019-02-20 00:00:00,2019,Mañana,Laborable,Caida,Leve,Despejado,CENTRO,CALLE ATOCHA 104 Madrid,-3.695468,40.4102417
2019-02-22 20:00:00,2019-02-22 00:00:00,2019,Tarde,Laborable,Colision,Moderada,Despejado,CARABANCHEL,CALLE GENERAL RICARDOS 18 Madrid,-3.7183794,40.39652239999999
2019-02-23 21:00:00,2019-02-23 00:00:00,2019,Noche,Vispera,Colision,Leve,Despejado,MONCLOA-ARAVACA,PLAZA. ESPAÑA 16 Madrid,-3.713224,40.4237064
2019-02-25 17:00:00,2019-02-25 00:00:00,2019,Tarde,Laborable,Caida,Moderada,Despejado,CENTRO,CALLE ESPARTEROS 12 Madrid,-3.7053396,40.41565739999999
2019-02-27 19:00:00,2019-02-27 00:00:00,2019,Tarde,Laborable,Colision,Leve,Despejado,CHAMBERÍ,PASEO. GENERAL MARTINEZ CAMPOS / CALLE MODESTO LAFUENTE Madrid,-3.6965022,40.43502460000001
2019-02-27 10:00:00,2019-02-27 00:00:00,2019,Mañana,Laborable,Caida,Leve,Despejado,RETIRO,PASEO. FERNAN NUÑEZ / PASEO. VENEZUELA Madrid,-3.680099299999999,40.416272600000006
2019-02-28 08:00:00,2019-02-28 00:00:00,2019,Mañana,Laborable,Caida,Leve,Despejado,CHAMBERÍ,PASEO. CASTELLANA 29 Madrid,-3.6896221,40.4309218
2019-03-01 21:00:00,2019-03-01 00:00:00,2019,Noche,Laborable,Colision,Leve,Despejado,RETIRO,PASEO. PRADO 13 Madrid,-3.694130899999999,40.4142894
2019-03-01 13:00:00,2019-03-01 00:00:00,2019,Tarde,Laborable,Caida,Leve,Despejado,CHAMBERÍ,CALLE MODESTO LAFUENTE 61 Madrid,-3.6958867,40.44438780000001
2019-03-01 12:00:00,2019-03-01 00:00:00,2019,Mañana,Laborable,Caida,Leve,Despejado,ARGANZUELA,RONDA. ATOCHA 7 Madrid,-3.6948477,40.4069616
2019-03-02 14:00:00,2019-03-02 00:00:00,2019,Tarde,Vispera,Caida,Grave,Despejado,ARGANZUELA,PASEO. MOLINO 1 Madrid,-3.694092599999999,40.3905654
2019-03-02 04:00:00,2019-03-02 00:00:00,2019,Noche,Vispera,Caida,Leve,Despejado,CENTRO,PASEO. PRADO 48 Madrid,-3.692809,40.40979420000001
2019-03-03 23:00:00,2019-03-03 00:00:00,2019,Noche,Festivo,Colision,Leve,Despejado,CENTRO,PLAZA. EMPERADOR CARLOS V 1 Madrid,-3.6930305,40.4069594
2019-03-04 16:00:00,2019-03-04 00:00:00,2019,Tarde,Laborable,Colision,Leve,Despejado,MORATALAZ,CALLE ARROYO DE LA MEDIA LEGUA / CALLE CORREGIDOR DIEGO CABEZA DE VACA Madrid,-3.6560659,40.4101249
2019-03-04 16:00:00,2019-03-04 00:00:00,2019,Tarde,Laborable,Colision,Leve,Despejado,RETIRO,CALLE ALFONSO XII / CALLE MONTALBAN Madrid,-3.6888065,40.417810300000006
2019-03-04 13:00:00,2019-03-04 00:00:00,2019,Tarde,Laborable,Colision,Moderada,Despejado,CHAMARTÍN,PASEO. CASTELLANA 92 Madrid,-3.6908818,40.4432324
2019-03-08 21:00:00,2019-03-08 00:00:00,2019,Noche,Laborable,Colision,Moderada,Despejado,HORTALEZA,CALLE PRINCIPE CARLOS / CALLE MARIA TUDOR Madrid,-3.659097699999999,40.4955912
2019-03-08 21:00:00,2019-03-08 00:00:00,2019,Noche,Laborable,Colision,Moderada,Despejado,HORTALEZA,CALLE PRINCIPE CARLOS / CALLE MARIA TUDOR Madrid,-3.659097699999999,40.4955912
2019-03-08 17:00:00,2019-03-08 00:00:00,2019,Tarde,Laborable,Colision,Leve,Despejado,TETUÁN,PASEO. CASTELLANA / CALLE RAIMUNDO FERNANDEZ VILLAVERDE Madrid,-3.6913488,40.4463472
2019-03-10 19:00:00,2019-03-10 00:00:00,2019,Tarde,Festivo,Colision,Moderada,Despejado,LATINA,PASEO. ERMITA DEL SANTO / CALLE VIA CARPETANA Madrid,-3.7332813,40.3996275
2019-03-10 15:00:00,2019-03-10 00:00:00,2019,Tarde,Festivo,Colision,Grave,Despejado,HORTALEZA,CALLE SANTA ADELA 14 Madrid,-3.6490489,40.479068
2019-03-10 15:00:00,2019-03-10 00:00:00,2019,Tarde,Festivo,Colision,Leve,Despejado,HORTALEZA,CALLE SANTA ADELA 14 Madrid,-3.6490489,40.479068
2019-03-11 22:00:00,2019-03-11 00:00:00,2019,Noche,Laborable,Colision,Leve,Despejado,CENTRO,PLAZA. ESPAÑA / CALLE BAILEN Madrid,-3.713318299999999,40.4221995
2019-03-11 21:00:00,2019-03-11 00:00:00,2019,Noche,Laborable,Caida,Moderada,Despejado,SALAMANCA,CALLE ALCALDE SAINZ DE BARANDA / AUTOV. M-30 Madrid,-3.674558899999999,40.416658700000006
2019-03-12 09:00:00,2019-03-12 00:00:00,2019,Mañana,Laborable,Colision,Moderada,Despejado,CHAMARTÍN,CALLE JORGE MANRIQUE - CALLE SERRANO Madrid,-3.685857700000001,40.4427903
2019-03-15 22:00:00,2019-03-15 00:00:00,2019,Noche,Laborable,Colision,Moderada,Despejado,TETUÁN,CALLE BRAVO MURILLO 305 Madrid,-3.697591099999999,40.462476
2019-03-15 20:00:00,2019-03-15 00:00:00,2019,Tarde,Laborable,Caida,Moderada,Despejado,RETIRO,AVDA. CIUDAD DE BARCELONA / CALLE SECO Madrid,-3.6715486,40.3995373
2019-03-16 18:00:00,2019-03-16 00:00:00,2019,Tarde,Vispera,Colision,Leve,Despejado,CHAMBERÍ,CALLE ALMAGRO 25 Madrid,-3.6923171,40.43163089999999
2019-03-17 12:00:00,2019-03-17 00:00:00,2019,Mañana,Festivo,Imprudencia,Leve,Despejado,USERA,"PQUE. MADRID RIO, +00700E Madrid",-3.6781098,40.35628270000001
2019-03-17 12:00:00,2019-03-17 00:00:00,2019,Mañana,Festivo,Imprudencia,Leve,Despejado,USERA,"PQUE. MADRID RIO, +00700E Madrid",-3.6781098,40.35628270000001
2019-03-18 14:00:00,2019-03-18 00:00:00,2019,Tarde,Laborable,Colision,Leve,Despejado,CENTRO,CALLE SAN BERNARDO 43 Madrid,-3.7075514,40.4238011
2019-03-18 00:00:00,2019-03-18 00:00:00,2019,Noche,Laborable,Caida,Grave,Despejado,CENTRO,CUSTA. SAN VICENTE / CALLE BAILEN Madrid,-3.714785,40.42108899999999
2019-03-19 08:00:00,2019-03-19 00:00:00,2019,Mañana,Laborable,Colision,Leve,Despejado,FUENCARRAL-EL PARDO,PLAZA. LEALTAD / PASEO. PRADO Madrid,-3.6935372,40.4153481
2019-03-20 16:00:00,2019-03-20 00:00:00,2019,Tarde,Laborable,Caida,Leve,Despejado,CENTRO,CALLE ALACALA - PASEO DEL PRADO Madrid,-3.6936264,40.4191319
2019-03-20 10:00:00,2019-03-20 00:00:00,2019,Mañana,Laborable,Imprudencia,Leve,Despejado,CHAMARTÍN,PASEO. ERMITA DEL SANTO / GTA. PUENTE DE SEGOVIA Madrid,-3.7242048,40.4140469
2019-03-20 10:00:00,2019-03-20 00:00:00,2019,Mañana,Laborable,Imprudencia,Leve,Despejado,CHAMARTÍN,PASEO. ERMITA DEL SANTO / GTA. PUENTE DE SEGOVIA Madrid,-3.7242048,40.4140469
2019-03-22 16:00:00,2019-03-22 00:00:00,2019,Tarde,Laborable,Colision,Leve,Despejado,CIUDAD LINEAL,CALLE JOSE SILVA 2 Madrid,-3.6571306,40.45560370000001
2019-03-22 14:00:00,2019-03-22 00:00:00,2019,Tarde,Laborable,Caida,Grave,Despejado,VILLAVERDE,CALLE HULLA / AVDA. LOS ROSALES Madrid,-3.6692675,40.34008970000001
2019-03-22 14:00:00,2019-03-22 00:00:00,2019,Tarde,Laborable,Imprudencia,Leve,Despejado,CENTRO,CALLE ATOCHA 109 Madrid,-3.6949,40.41067
2019-03-22 14:00:00,2019-03-22 00:00:00,2019,Tarde,Laborable,Imprudencia,Moderada,Despejado,CENTRO,CALLE ATOCHA 109 Madrid,-3.6949,40.41067
2019-03-22 14:00:00,2019-03-22 00:00:00,2019,Tarde,Laborable,Colision,Leve,Despejado,CHAMARTÍN,PASEO. LA HABANA / CALLE SANTIAGO BERNABEU Madrid,-3.6885236,40.44990870000001
2019-03-24 22:00:00,2019-03-24 00:00:00,2019,Noche,Festivo,Colision,Leve,Despejado,CENTRO,CALLE HORTALEZA 100 Madrid,-3.6975687000000006,40.4246861
2019-03-24 22:00:00,2019-03-24 00:00:00,2019,Noche,Festivo,Colision,Leve,Despejado,CENTRO,CALLE HORTALEZA 100 Madrid,-3.6975687000000006,40.4246861
2019-03-24 02:00:00,2019-03-24 00:00:00,2019,Noche,Festivo,Caida,Leve,Despejado,TETUÁN,CALLE BRAVO MURILLO 120 Madrid,-3.7033957,40.4486645
2019-03-25 23:00:00,2019-03-25 00:00:00,2019,Noche,Laborable,Imprudencia,Moderada,Despejado,CENTRO,CALLE HORTALEZA 18 Madrid,-3.700349,40.421186
2019-03-25 23:00:00,2019-03-25 00:00:00,2019,Noche,Laborable,Imprudencia,Moderada,Despejado,CENTRO,CALLE HORTALEZA 18 Madrid,-3.700349,40.421186
2019-03-26 19:00:00,2019-03-26 00:00:00,2019,Tarde,Laborable,Otro,Leve,Despejado,CHAMARTÍN,"CALLE JOAQUIN COSTA, FRENTE Nº 6 Madrid",-3.686865,40.446089
2019-03-26 13:00:00,2019-03-26 00:00:00,2019,Tarde,Laborable,Caida,Leve,Despejado,SALAMANCA,PLAZA. CIBELES / CALLE ALCALA Madrid,-3.6936264,40.4191319
2019-03-27 22:00:00,2019-03-27 00:00:00,2019,Noche,Laborable,Caida,Moderada,Despejado,CENTRO,PLAZA. EMPERADOR CARLOS V / CALLE SANTA ISABEL Madrid,-3.6928509,40.4081395
2019-03-28 15:00:00,2019-03-28 00:00:00,2019,Tarde,Laborable,Colision,Leve,Despejado,CENTRO,AVDA. GRAN VIA DE SAN FRANCISCO 4 Madrid,-3.7121846,40.4077415
2019-03-29 18:00:00,2019-03-29 00:00:00,2019,Tarde,Laborable,Colision,Moderada,Despejado,MONCLOA-ARAVACA,AVDA. MIRAFLORES 48 Madrid,-3.7319304,40.4707589
2019-03-29 17:00:00,2019-03-29 00:00:00,2019,Tarde,Laborable,Colision,Leve,Despejado,TETUÁN,CALLE ORENSE 15 Madrid,-3.6954944,40.4487989
2019-03-30 20:00:00,2019-03-30 00:00:00,2019,Tarde,Vispera,Colision,Grave,Despejado,HORTALEZA,AVDA. SECUNDINO ZUAZO / CALLE CESAR CORT BOTI Madrid,-3.6124067,40.49523370000001
2019-03-30 14:00:00,2019-03-30 00:00:00,2019,Tarde,Vispera,Colision,Leve,Despejado,ARGANZUELA,CALLE JUAN DUQUE / CALLE MORENO NIETO Madrid,-3.719479,40.4120573
2019-03-30 10:00:00,2019-03-30 00:00:00,2019,Mañana,Vispera,Colision,Moderada,Despejado,BARAJAS,GTA. ERMITA DE LA VIRGEN DE LA SOLEDAD Madrid,-3.5819493,40.467763100000006
2019-03-31 12:00:00,2019-03-31 00:00:00,2019,Mañana,Festivo,Caida,Leve,Lluvia,SALAMANCA,PASEO. CASTELLANA 16 Madrid,-3.6891291,40.428411
2019-04-01 23:00:00,2019-04-01 00:00:00,2019,Noche,Laborable,Colision,Leve,Despejado,ARGANZUELA,PASEO. DELICIAS 32 Madrid,-3.6937498,40.4043232
2019-04-01 18:00:00,2019-04-01 00:00:00,2019,Tarde,Laborable,Colision,Leve,Despejado,MONCLOA-ARAVACA,JUNTO A HUERTA DE LA PARTIDA Madrid,-3.7245731,40.41783059999999
2019-04-01 16:00:00,2019-04-01 00:00:00,2019,Tarde,Laborable,Caida,Moderada,Despejado,ARGANZUELA,RONDA. TOLEDO 10 Madrid,-3.7101352,40.406115
2019-04-01 15:00:00,2019-04-01 00:00:00,2019,Tarde,Laborable,Colision,Leve,Despejado,SALAMANCA,CALLE ALCALA 91 Madrid,-3.6849785,40.4210254
2019-04-02 14:00:00,2019-04-02 00:00:00,2019,Tarde,Laborable,Colision,Leve,Lluvia,FUENCARRAL-EL PARDO,"AUTOV. M-607, +01500S Madrid",-3.6917822,40.5278709
2019-04-02 14:00:00,2019-04-02 00:00:00,2019,Tarde,Laborable,Colision,Leve,Lluvia,FUENCARRAL-EL PARDO,"AUTOV. M-607, +01500S Madrid",-3.6917822,40.5278709
2019-04-03 17:00:00,2019-04-03 00:00:00,2019,Tarde,Laborable,Caida,Moderada,Despejado,PUENTE DE VALLECAS,IDB. PARQUE LINEAL DEL MANZANARES Madrid,-3.6781098,40.35628270000001
2019-04-03 15:00:00,2019-04-03 00:00:00,2019,Tarde,Laborable,Colision,Leve,Despejado,MORATALAZ,AVDA. DOCTOR GARCIA TAPIA 157A Madrid,-3.6302943,40.4077394
2019-04-04 22:00:00,2019-04-04 00:00:00,2019,Noche,Laborable,Colision,Leve,Despejado,CENTRO,CALLE GRAN VIA / METRO. PLAZA DE ESPAÑA Madrid,-3.7111835,40.423628
2019-04-05 10:00:00,2019-04-05 00:00:00,2019,Mañana,Laborable,Colision,Moderada,Lluvia,CIUDAD LINEAL,CALLE ARRIAGA / CALLE FERNANDO GABRIEL Madrid,-3.6398136,40.4242939
2019-04-06 21:00:00,2019-04-06 00:00:00,2019,Noche,Vispera,Colision,Moderada,Lluvia,ARGANZUELA,CALLE MIGUEL ARREDONDO / CALLE ALONSO CARBONELL Madrid,-3.696397499999999,40.3948269
2019-04-06 20:00:00,2019-04-06 00:00:00,2019,Tarde,Vispera,Caida,Moderada,Lluvia,CENTRO,CALLE VICTORIA 4 Madrid,-3.7017361000000006,40.4162424
2019-04-07 10:00:00,2019-04-07 00:00:00,2019,Mañana,Festivo,Imprudencia,Leve,Despejado,CENTRO,CALLE HORTALEZA 17 Madrid,-3.700363,40.42148270000001
2019-04-08 12:00:00,2019-04-08 00:00:00,2019,Mañana,Laborable,Imprudencia,Leve,Lluvia,USERA,AVDA. MANZANARES 200 Madrid,-3.7026623,40.39277269999999
2019-04-08 12:00:00,2019-04-08 00:00:00,2019,Mañana,Laborable,Imprudencia,Leve,Lluvia,USERA,AVDA. MANZANARES 200 Madrid,-3.7026623,40.39277269999999
2019-04-08 11:00:00,2019-04-08 00:00:00,2019,Mañana,Laborable,Colision,Leve,Lluvia,USERA,CALLE DOLORES BARRANCO / CALLE JUSTA GARCIA Madrid,-3.7095953,40.3828874
2019-04-08 09:00:00,2019-04-08 00:00:00,2019,Mañana,Laborable,Colision,Leve,Lluvia,MONCLOA-ARAVACA,CALLE EXPLANADA / CALLE PEDRO JUSTO DORADO DELLMANS Madrid,-3.712081,40.4486464
2019-04-09 13:00:00,2019-04-09 00:00:00,2019,Tarde,Laborable,Otro,Leve,Lluvia,CENTRO,PASEO. RECOLETOS / CALLE GENOVA Madrid,-3.6909932,40.42518070000001
2019-04-10 17:00:00,2019-04-10 00:00:00,2019,Tarde,Laborable,Caida,Moderada,Despejado,CENTRO,CALLE ALCALA 42 Madrid,-3.6966827000000007,40.41838389999999
2019-04-10 09:00:00,2019-04-10 00:00:00,2019,Mañana,Laborable,Imprudencia,Leve,Despejado,RETIRO,PASEO. FERNAN NUÑEZ 1 Madrid,-3.680757700000001,40.41784579999999
2019-04-10 09:00:00,2019-04-10 00:00:00,2019,Mañana,Laborable,Imprudencia,Leve,Despejado,RETIRO,PASEO. FERNAN NUÑEZ 1 Madrid,-3.680757700000001,40.41784579999999
2019-04-11 16:00:00,2019-04-11 00:00:00,2019,Tarde,Laborable,Caida,Leve,Despejado,CHAMBERÍ,CALLE LUCHANA 34 Madrid,-3.6986587,40.4315082
2019-04-11 09:00:00,2019-04-11 00:00:00,2019,Mañana,Laborable,Colision,Moderada,Despejado,TETUÁN,CALLE SAN GERMAN / CALLE POETA JOAN MARAGALL Madrid,-3.692213,40.4562603
2019-04-12 14:00:00,2019-04-12 00:00:00,2019,Tarde,Laborable,Caida,Moderada,Despejado,CENTRO,CALLE BARCO 32 Madrid,-3.7023047,40.4230222
2019-04-12 14:00:00,2019-04-12 00:00:00,2019,Tarde,Laborable,Caida,Leve,Despejado,CENTRO,CALLE BARCO 32 Madrid,-3.7023047,40.4230222
2019-04-16 19:00:00,2019-04-16 00:00:00,2019,Tarde,Laborable,Caida,Moderada,Despejado,RETIRO,CALLE CLAUDIO MOYANO / PASEO. PRADO Madrid,-3.6920301,40.4093831
2019-04-16 08:00:00,2019-04-16 00:00:00,2019,Mañana,Laborable,Caida,Leve,Despejado,CENTRO,CALLE SANTA ISABEL 50 Madrid,-3.6953095,40.4087755
2019-04-20 21:00:00,2019-04-20 00:00:00,2019,Noche,Vispera,Caida,Moderada,Lluvia,VILLAVERDE,CALLE GILENA 14 Madrid,-3.7088971,40.3434084
2019-04-20 21:00:00,2019-04-20 00:00:00,2019,Noche,Vispera,Colision,Leve,Despejado,CHAMBERÍ,CALLE SANTA ENGRACIA 76 Madrid,-3.6992153,40.43656319999999
2019-04-21 17:00:00,2019-04-21 00:00:00,2019,Tarde,Festivo,Imprudencia,Moderada,Lluvia,BARAJAS,PQUE. JUAN CARLOS I 1 Madrid,-3.6050151,40.4609216
2019-04-23 17:00:00,2019-04-23 00:00:00,2019,Tarde,Laborable,Caida,Leve,Despejado,CENTRO,CUSTA. SANTO DOMINGO / CALLE FOMENTO Madrid,-3.709297099999999,40.4199055
2019-04-24 16:00:00,2019-04-24 00:00:00,2019,Tarde,Laborable,Otro,Leve,Despejado,MORATALAZ,CALLE ARROYO BELINCOSO 24 Madrid,-3.6523644,40.40933270000001
2019-04-27 20:00:00,2019-04-27 00:00:00,2019,Tarde,Vispera,Colision,Leve,Despejado,CENTRO,MADRID Madrid,-3.7037902,40.4167754
2019-04-27 11:00:00,2019-04-27 00:00:00,2019,Mañana,Vispera,Colision,Moderada,Despejado,SAN BLAS-CANILLEJAS,CALLE JULIA GARCIA BOUTAN / CALLE SOFIA Madrid,-3.6019198,40.43074470000001
2019-04-29 21:00:00,2019-04-29 00:00:00,2019,Noche,Laborable,Caida,Leve,Despejado,CHAMBERÍ,PLAZA. ALONSO MARTINEZ 7 Madrid,-3.69515,40.42757
2019-04-29 07:00:00,2019-04-29 00:00:00,2019,Mañana,Laborable,Imprudencia,Moderada,Despejado,CIUDAD LINEAL,CALLE ALCALA / CALLE LOS URQUIZA Madrid,-3.6463098,40.43397909999999
2019-05-02 10:00:00,2019-05-02 00:00:00,2019,Mañana,Festivo,Imprudencia,Moderada,Despejado,VICÁLVARO,BULEV. JOSE PRAT / CALLE HACIENDA DE PAVONES Madrid,-3.6266449,40.3985498
2019-05-03 22:00:00,2019-05-03 00:00:00,2019,Noche,Laborable,Caida,Moderada,Despejado,CENTRO,CALLE SANTA CATALINA / CRA. SAN JERONIMO Madrid,-3.6976814,40.41625870000001
2019-05-04 21:00:00,2019-05-04 00:00:00,2019,Noche,Vispera,Colision,Leve,Despejado,CHAMBERÍ,CALLE CEA BERMUDEZ / CALLE BRAVO MURILLO Madrid,-3.7042082,40.4386777
2019-05-05 21:00:00,2019-05-05 00:00:00,2019,Noche,Festivo,Caida,Moderada,Despejado,ARGANZUELA,PASEO. ESPERANZA 15 Madrid,-3.7052395,40.40243
2019-05-06 08:00:00,2019-05-06 00:00:00,2019,Mañana,Laborable,Colision,Moderada,Despejado,CIUDAD LINEAL,CALLE ALCALA 346 Madrid,-3.6452051,40.4343722
2019-05-07 15:00:00,2019-05-07 00:00:00,2019,Tarde,Laborable,Colision,Leve,Despejado,SALAMANCA,CALLE ALCALA 142 Madrid,-3.6700447,40.4272873
2019-05-07 14:00:00,2019-05-07 00:00:00,2019,Tarde,Laborable,Colision,Leve,Despejado,CHAMBERÍ,CALLE SANTA ENGRACIA / CALLE MANUEL GONZALEZ LONGORIA Madrid,-3.6960476,40.4288218
2019-05-07 12:00:00,2019-05-07 00:00:00,2019,Mañana,Laborable,Colision,Leve,Despejado,RETIRO,CALLE ALCALA / PALAC. CIBELES Madrid,-3.6917853,40.418882
2019-05-10 20:00:00,2019-05-10 00:00:00,2019,Tarde,Laborable,Colision,Leve,Despejado,TETUÁN,CALLE HERNANI 35 Madrid,-3.700352,40.4483118
2019-05-10 17:00:00,2019-05-10 00:00:00,2019,Tarde,Laborable,Colision,Moderada,Despejado,SAN BLAS-CANILLEJAS,CALLE JUAN IGNACIO LUCA DE TENA 15 Madrid,-3.630408899999999,40.44849019999999
2019-05-10 16:00:00,2019-05-10 00:00:00,2019,Tarde,Laborable,Caida,Moderada,Despejado,TETUÁN,AVDA. ASTURIAS 56 Madrid,-3.6978226,40.4715221
2019-05-10 12:00:00,2019-05-10 00:00:00,2019,Mañana,Laborable,Colision,Leve,Despejado,CARABANCHEL,MADRID RIO Madrid,-3.7234566,40.41309320000001
2019-05-10 12:00:00,2019-05-10 00:00:00,2019,Mañana,Laborable,Colision,Leve,Despejado,CARABANCHEL,MADRID RIO Madrid,-3.7234566,40.41309320000001
2019-05-10 12:00:00,2019-05-10 00:00:00,2019,Mañana,Laborable,Colision,Leve,Despejado,CARABANCHEL,MADRID RIO Madrid,-3.7234566,40.41309320000001
2019-05-10 01:00:00,2019-05-10 00:00:00,2019,Noche,Laborable,Imprudencia,Leve,Despejado,CENTRO,CALLE ALCALA 44 Madrid,-3.6960347,40.4184039
2019-05-11 20:00:00,2019-05-11 00:00:00,2019,Tarde,Vispera,Caida,Moderada,Despejado,FUENCARRAL-EL PARDO,CALLE GABRIELA MISTRAL 20 Madrid,-3.7358653,40.4841794
2019-05-11 20:00:00,2019-05-11 00:00:00,2019,Tarde,Vispera,Imprudencia,Moderada,Despejado,MONCLOA-ARAVACA,PASEO. PLATANOS / PASEO. PUERTA DEL ANGEL Madrid,-3.7327986000000006,40.4159691
2019-05-11 11:00:00,2019-05-11 00:00:00,2019,Mañana,Vispera,Colision,Moderada,Despejado,VILLA DE VALLECAS,AVDA. CERRO MILANO 1 Madrid,-3.618221399999999,40.36870510000001
2019-05-11 11:00:00,2019-05-11 00:00:00,2019,Mañana,Vispera,Colision,Leve,Despejado,VILLA DE VALLECAS,AVDA. CERRO MILANO 1 Madrid,-3.618221399999999,40.36870510000001
2019-05-12 20:00:00,2019-05-12 00:00:00,2019,Tarde,Festivo,Colision,Leve,Despejado,TETUÁN,CALLE MARQUES DE VIANA 38 Madrid,-3.7018893,40.46273770000001
2019-05-12 20:00:00,2019-05-12 00:00:00,2019,Tarde,Festivo,Colision,Leve,Despejado,TETUÁN,CALLE MARQUES DE VIANA 38 Madrid,-3.7018893,40.46273770000001
2019-05-13 15:00:00,2019-05-13 00:00:00,2019,Tarde,Laborable,Colision,Moderada,Despejado,MORATALAZ,CALLE HACIENDA DE PAVONES / CALLE LUIS DE HOYOS SAINZ Madrid,-3.6297163,40.3992671
2019-05-13 13:00:00,2019-05-13 00:00:00,2019,Tarde,Laborable,Colision,Leve,Despejado,SALAMANCA,PASEO. CASTELLANA / CALLE MARIA DE MOLINA Madrid,-3.6908052,40.4378947
2019-05-14 14:00:00,2019-05-14 00:00:00,2019,Tarde,Vispera,Caida,Leve,Despejado,CENTRO,CALLE ISABEL LA CATOLICA 5 Madrid,-3.7092233,40.4210539
2019-05-15 14:00:00,2019-05-15 00:00:00,2019,Tarde,Festivo,Colision,Leve,Despejado,CIUDAD LINEAL,CALLE ALCALA / CALLE RAQUEL MELLER Madrid,-3.6576218,40.4317901
2019-05-16 23:00:00,2019-05-16 00:00:00,2019,Noche,Laborable,Colision,Moderada,Despejado,PUENTE DE VALLECAS,AVDA. SAN DIEGO / CALLE MONTES UNIVERSALES Madrid,-3.6651477,40.3840609
2019-05-16 22:00:00,2019-05-16 00:00:00,2019,Noche,Laborable,Caida,Leve,Despejado,ARGANZUELA,CALLE SEBASTIAN HERRERA 15 Madrid,-3.6994721,40.404034
2019-05-16 20:00:00,2019-05-16 00:00:00,2019,Tarde,Laborable,Caida,Leve,Despejado,CENTRO,CALLE BARCELO 6 Madrid,-3.6988689,40.4269268
2019-05-16 16:00:00,2019-05-16 00:00:00,2019,Tarde,Laborable,Caida,Leve,Despejado,CENTRO,PASEO. PRADO 4 Madrid,-3.694501599999999,40.4172375
2019-05-16 08:00:00,2019-05-16 00:00:00,2019,Mañana,Laborable,Colision,Moderada,Despejado,HORTALEZA,CTRA. ESTACION DE HORTALEZA / AUTOV. M-11 Madrid,-3.6528582,40.47889139999999
2019-05-16 01:00:00,2019-05-16 00:00:00,2019,Noche,Laborable,Colision,Leve,Despejado,ARGANZUELA,PASEO. ACACIAS 25A Madrid,-3.706733099999999,40.4037122
2019-05-17 23:00:00,2019-05-17 00:00:00,2019,Noche,Laborable,Colision,Leve,Despejado,CHAMBERÍ,CALLE JOSE ABASCAL 5 Madrid,-3.7015213,40.4387299
2019-05-18 18:00:00,2019-05-18 00:00:00,2019,Tarde,Vispera,Caida,Moderada,Despejado,BARAJAS,PQUE. JUAN CARLOS I 1 Madrid,-3.6050151,40.4609216
2019-05-18 18:00:00,2019-05-18 00:00:00,2019,Tarde,Vispera,Imprudencia,Leve,Despejado,MONCLOA-ARAVACA,PASEO. PINTOR ROSALES / PASEO. MORET Madrid,-3.7251689,40.432551200000006
2019-05-18 18:00:00,2019-05-18 00:00:00,2019,Tarde,Vispera,Imprudencia,Leve,Despejado,MONCLOA-ARAVACA,PASEO. PINTOR ROSALES / PASEO. MORET Madrid,-3.7251689,40.432551200000006
2019-05-18 18:00:00,2019-05-18 00:00:00,2019,Tarde,Vispera,Imprudencia,Leve,Despejado,MONCLOA-ARAVACA,PASEO. PINTOR ROSALES / PASEO. MORET Madrid,-3.7251689,40.432551200000006
2019-05-19 21:00:00,2019-05-19 00:00:00,2019,Noche,Festivo,Imprudencia,Leve,Despejado,CENTRO,CALLE MAYOR 1 Madrid,-3.7046732,40.416463
2019-05-19 21:00:00,2019-05-19 00:00:00,2019,Noche,Festivo,Imprudencia,Leve,Despejado,CENTRO,CALLE MAYOR 1 Madrid,-3.7046732,40.416463
2019-05-20 14:00:00,2019-05-20 00:00:00,2019,Tarde,Laborable,Imprudencia,Leve,Despejado,VILLAVERDE,CALLE PALOMARES / CALLE JUAN PEÑALVER Madrid,-3.7135306,40.34706110000001
2019-05-20 14:00:00,2019-05-20 00:00:00,2019,Tarde,Laborable,Imprudencia,Leve,Despejado,VILLAVERDE,CALLE PALOMARES / CALLE JUAN PEÑALVER Madrid,-3.7135306,40.34706110000001
2019-05-21 21:00:00,2019-05-21 00:00:00,2019,Noche,Laborable,Caida,Moderada,Despejado,CENTRO,CALLE RIBERA DE CURTIDORES / CALLE CARNERO Madrid,-3.7073252,40.4085316
2019-05-21 21:00:00,2019-05-21 00:00:00,2019,Noche,Laborable,Caida,Moderada,Despejado,CENTRO,CALLE RIBERA DE CURTIDORES / CALLE CARNERO Madrid,-3.7073252,40.4085316
2019-05-21 20:00:00,2019-05-21 00:00:00,2019,Tarde,Laborable,Caida,Moderada,Despejado,FUENCARRAL-EL PARDO,CALLE ISLA DE YESO 11 Madrid,-3.7241553,40.47823220000001
2019-05-21 19:00:00,2019-05-21 00:00:00,2019,Tarde,Laborable,Caida,Leve,Despejado,RETIRO,PASEO. FERNAN NUÑEZ 2 Madrid,-3.686175299999999,40.4094355
2019-05-21 02:00:00,2019-05-21 00:00:00,2019,Noche,Laborable,Caida,Moderada,Despejado,PUENTE DE VALLECAS,CALLE BUSTOS / CALLE SIERRA DE LOS FILABRES Madrid,-3.6661392,40.39808439999999
2019-05-22 21:00:00,2019-05-22 00:00:00,2019,Noche,Laborable,Caida,Moderada,Despejado,ARGANZUELA,PQUE. ENRIQUE TIERNO GALVAN Madrid,-3.6838406,40.3900397
2019-05-22 17:00:00,2019-05-22 00:00:00,2019,Tarde,Laborable,Colision,Leve,Despejado,CENTRO,CALLE MESON DE PAREDES / CALLE TRIBULETE Madrid,-3.702708,40.4077023
2019-05-22 11:00:00,2019-05-22 00:00:00,2019,Mañana,Laborable,Caida,Moderada,Despejado,CARABANCHEL,PASEO. MARCELINO CAMACHO / CALLE ANTOLINA MERINO Madrid,-3.7428614,40.38691420000001
2019-05-22 07:00:00,2019-05-22 00:00:00,2019,Mañana,Laborable,Colision,Grave,Despejado,RETIRO,CALLE O'DONNELL 50 Madrid,-3.6710981,40.42103529999999
2019-05-23 21:00:00,2019-05-23 00:00:00,2019,Noche,Laborable,Caida,Moderada,Despejado,CIUDAD LINEAL,CALLE VAZQUEZ DE MELLA 49 Madrid,-3.6386685,40.4336801
2019-05-23 09:00:00,2019-05-23 00:00:00,2019,Mañana,Laborable,Caida,Leve,Despejado,CENTRO,CUESTA SANTO DOMINGO. 5 Madrid,-3.7099964,40.4196974
2019-05-25 08:00:00,2019-05-25 00:00:00,2019,Mañana,Vispera,Caida,Grave,Despejado,CENTRO,CALLE MESON DE PAREDES 75 Madrid,-3.7019646,40.406823
2019-05-26 09:00:00,2019-05-26 00:00:00,2019,Mañana,Festivo,Colision,Moderada,Despejado,CENTRO,CALLE TOLEDO / CALLE CONCEPCION JERONIMA Madrid,-3.7074697,40.4136005
2019-05-28 17:00:00,2019-05-28 00:00:00,2019,Tarde,Laborable,Colision,Leve,Despejado,SALAMANCA,CALLE CONDE DE PEÑALVER 38 Madrid,-3.6749609,40.4290821
2019-05-28 10:00:00,2019-05-28 00:00:00,2019,Mañana,Laborable,Colision,Leve,Despejado,LATINA,GTA. PUENTE DE SEGOVIA / PNTE. SEGOVIA Madrid,-3.7231884,40.4140308
2019-05-28 10:00:00,2019-05-28 00:00:00,2019,Mañana,Laborable,Colision,Leve,Despejado,CHAMBERÍ,CALLE SANTA ENGRACIA 123 Madrid,-3.7008087,40.4389685
2019-05-29 19:00:00,2019-05-29 00:00:00,2019,Tarde,Laborable,Caida,Moderada,Despejado,CENTRO,CALLE ATOCHA / CALLE SANTO TOMAS Madrid,-3.7055867,40.4148071
2019-05-29 18:00:00,2019-05-29 00:00:00,2019,Tarde,Laborable,Colision,Leve,Despejado,SALAMANCA,CALLE PRINCIPE DE VERGARA 29 Madrid,-3.6803975,40.4263706
2019-05-29 10:00:00,2019-05-29 00:00:00,2019,Mañana,Laborable,Colision,Grave,Despejado,ARGANZUELA,PASEO. ACACIAS 63 Madrid,-3.7120011,40.4017887
2019-05-31 17:00:00,2019-05-31 00:00:00,2019,Tarde,Laborable,Imprudencia,Moderada,Despejado,CHAMARTÍN,CALLE PEDRO DE VALDIVIA 12 Madrid,-3.688748200000001,40.4390053
2019-05-31 17:00:00,2019-05-31 00:00:00,2019,Tarde,Laborable,Imprudencia,Leve,Despejado,CHAMBERÍ,CALLE SANTA ENGRACIA 101 Madrid,-3.6998677,40.4368949
2019-05-31 17:00:00,2019-05-31 00:00:00,2019,Tarde,Laborable,Imprudencia,Leve,Despejado,CHAMBERÍ,CALLE SANTA ENGRACIA 101 Madrid,-3.6998677,40.4368949
2019-06-01 14:00:00,2019-06-01 00:00:00,2019,Tarde,Vispera,Colision,Moderada,Despejado,MORATALAZ,CALLE FUENTE CARRANTONA / CALLE BENJAMIN PALENCIA Madrid,-3.6550569,40.3962904
2019-06-01 08:00:00,2019-06-01 00:00:00,2019,Mañana,Vispera,Colision,Leve,Lluvia,CIUDAD LINEAL,CALLE JOSE MARIA PEREDA / CALLE SOR MARIA DE AGREDA Madrid,-3.6479169,40.4301808
2019-06-03 19:00:00,2019-06-03 00:00:00,2019,Tarde,Laborable,Colision,Leve,Despejado,CENTRO,PLAZA. CIBELES / CALLE ALCALA Madrid,-3.6936264,40.4191319
2019-06-03 15:00:00,2019-06-03 00:00:00,2019,Tarde,Laborable,Imprudencia,Leve,Despejado,CHAMBERÍ,GTA. RUBEN DARIO 1 Madrid,-3.6907132000000007,40.432717
2019-06-03 15:00:00,2019-06-03 00:00:00,2019,Tarde,Laborable,Imprudencia,Leve,Despejado,CHAMBERÍ,GTA. RUBEN DARIO 1 Madrid,-3.6907132000000007,40.432717
2019-06-04 08:00:00,2019-06-04 00:00:00,2019,Mañana,Laborable,Colision,Moderada,Despejado,FUENCARRAL-EL PARDO,CALLE MONASTERIO DE SAMOS 18 Madrid,-3.6956627,40.50616760000001
2019-06-05 19:00:00,2019-06-05 00:00:00,2019,Tarde,Laborable,Caida,Moderada,Despejado,SALAMANCA,CALLE SERRANO 1 Madrid,-3.688811,40.4208273
2019-06-05 15:00:00,2019-06-05 00:00:00,2019,Tarde,Laborable,Colision,Moderada,Despejado,RETIRO,PASEO. INFANTA ISABEL / AVDA. CIUDAD DE BARCELONA Madrid,-3.6877787,40.40671409999999
2019-06-05 15:00:00,2019-06-05 00:00:00,2019,Tarde,Laborable,Colision,Leve,Despejado,CENTRO,CALLE GRAN VIA / CALLE ALCALA Madrid,-3.6966751,40.4186387
2019-06-06 21:00:00,2019-06-06 00:00:00,2019,Noche,Laborable,Caida,Moderada,Despejado,LATINA,AVDA. POBLADOS 41 Madrid,-3.7608835,40.38552019999999
2019-06-07 20:00:00,2019-06-07 00:00:00,2019,Tarde,Laborable,Caida,Grave,Despejado,PUENTE DE VALLECAS,CALLE JAVIER DE MIGUEL 113 Madrid,-3.6560063,40.38533820000001
2019-06-07 13:00:00,2019-06-07 00:00:00,2019,Tarde,Laborable,Caida,Moderada,Despejado,PUENTE DE VALLECAS,AVDA. RAFAEL ALBERTI / CALLE EXTREMEÑOS Madrid,-3.642973099999999,40.384217
2019-06-08 22:00:00,2019-06-08 00:00:00,2019,Noche,Vispera,Caida,Moderada,Despejado,ARGANZUELA,CALLE SANTA MARIA LA REAL DE NIEVA 9 Madrid,-3.718321899999999,40.4061088
2019-06-08 22:00:00,2019-06-08 00:00:00,2019,Noche,Vispera,Caida,Leve,Despejado,RETIRO,CALLE ALFONSO XII / CALLE CLAUDIO MOYANO Madrid,-3.688735,40.409205
2019-06-09 22:00:00,2019-06-09 00:00:00,2019,Noche,Festivo,Colision,Leve,Despejado,CENTRO,GTA. BILBAO / CALLE FUENCARRAL Madrid,-3.7021887,40.4285348
2019-06-10 20:00:00,2019-06-10 00:00:00,2019,Tarde,Laborable,Colision,Moderada,Despejado,FUENCARRAL-EL PARDO,CALLE DOCTOR RAMON CASTROVIEJO 5 Madrid,-3.7136253,40.479513
2019-06-11 20:00:00,2019-06-11 00:00:00,2019,Tarde,Laborable,Colision,Moderada,Despejado,ARGANZUELA,CALLE GENERAL LACY / CALLE ANCORA Madrid,-3.6907778,40.4028662
2019-06-11 15:00:00,2019-06-11 00:00:00,2019,Tarde,Laborable,Colision,Leve,Despejado,CIUDAD LINEAL,CALLE MARQUESA DE TORRECILLA / CALLE MISTERIOS Madrid,-3.6396686,40.4388205
2019-06-12 20:00:00,2019-06-12 00:00:00,2019,Tarde,Laborable,Colision,Leve,Despejado,CHAMBERÍ,CALLE SANTA ENGRACIA 141 Madrid,-3.7026127,40.4434377
2019-06-12 18:00:00,2019-06-12 00:00:00,2019,Tarde,Laborable,Caida,Leve,Despejado,MONCLOA-ARAVACA,CALLE IRUN / CALLE CADARSO Madrid,-3.715698599999999,40.42249210000001
2019-06-13 22:00:00,2019-06-13 00:00:00,2019,Noche,Laborable,Imprudencia,Leve,Despejado,CENTRO,CALLE JACOMETREZO 15 Madrid,-3.7073927,40.4201075
2019-06-13 22:00:00,2019-06-13 00:00:00,2019,Noche,Laborable,Imprudencia,Moderada,Despejado,CENTRO,CALLE JACOMETREZO 15 Madrid,-3.7073927,40.4201075
2019-06-13 21:00:00,2019-06-13 00:00:00,2019,Noche,Laborable,Caida,Moderada,Despejado,FUENCARRAL-EL PARDO,AVDA. MONASTERIO DE SILOS 90 Madrid,-3.6909858,40.5108408
2019-06-13 21:00:00,2019-06-13 00:00:00,2019,Noche,Laborable,Imprudencia,Moderada,Despejado,FUENCARRAL-EL PARDO,GTA. SANTUARIO DE TISCAR Madrid,-3.713101699999999,40.5029473
2019-06-13 09:00:00,2019-06-13 00:00:00,2019,Mañana,Laborable,Colision,Leve,Despejado,RETIRO,PASEO. PRADO / CALLE ALCALA Madrid,-3.6936264,40.4191319
2019-06-14 09:00:00,2019-06-14 00:00:00,2019,Mañana,Laborable,Colision,Moderada,Despejado,PUENTE DE VALLECAS,"CALLE EMBAJADORES, 330  FRENTE ENTRADA CAJA MÁGIA Madrid",-3.6844407,40.3688321
2019-06-14 00:00:00,2019-06-14 00:00:00,2019,Noche,Laborable,Colision,Moderada,Despejado,CHAMBERÍ,GTA. RUIZ JIMENEZ / CALLE SAN BERNARDO Madrid,-3.7059927,40.429365
2019-06-15 17:00:00,2019-06-15 00:00:00,2019,Tarde,Vispera,Caida,Leve,Despejado,CHAMBERÍ,PASEO. GENERAL MARTINEZ CAMPOS 53 Madrid,-3.6900184,40.4353608
2019-06-15 04:00:00,2019-06-15 00:00:00,2019,Noche,Vispera,Caida,Leve,Despejado,CHAMBERÍ,CALLE RIOS ROSAS / CALLE PONZANO Madrid,-3.6990487,40.4418802
2019-06-16 23:00:00,2019-06-16 00:00:00,2019,Noche,Festivo,Otro,Leve,Despejado,CENTRO,CALLE SEGOVIA / RONDA. SEGOVIA Madrid,-3.716856899999999,40.4139115
2019-06-18 12:00:00,2019-06-18 00:00:00,2019,Mañana,Laborable,Caida,Moderada,Despejado,VICÁLVARO,PQUE. VALDEBERNARDO Madrid,-3.6117681,40.397753
2019-06-19 00:00:00,2019-06-19 00:00:00,2019,Noche,Laborable,Colision,Leve,Despejado,ARGANZUELA,CALLE EMBAJADORES / CALLE LABRADORES Madrid,-3.7006739,40.4025576
2019-06-21 16:00:00,2019-06-21 00:00:00,2019,Tarde,Laborable,Colision,Leve,Despejado,CHAMBERÍ,CALLE ELOY GONZALO / CALLE SANTISIMA TRINIDAD Madrid,-3.7002131,40.4345876
2019-06-21 13:00:00,2019-06-21 00:00:00,2019,Tarde,Laborable,Caida,Moderada,Despejado,ARGANZUELA,PASEO. JUAN ANTONIO VALLEJO-NAJERA BOTAS 4 Madrid,-3.700372599999999,40.4012526
2019-06-21 13:00:00,2019-06-21 00:00:00,2019,Tarde,Laborable,Caida,Leve,Despejado,ARGANZUELA,PASEO. JUAN ANTONIO VALLEJO-NAJERA BOTAS 4 Madrid,-3.700372599999999,40.4012526
2019-06-21 01:00:00,2019-06-21 00:00:00,2019,Noche,Laborable,Colision,Leve,Despejado,CENTRO,PLAZA. EMPERADOR CARLOS V 8 Madrid,-3.693189,40.4084654
2019-06-22 20:00:00,2019-06-22 00:00:00,2019,Tarde,Vispera,Caida,Leve,Despejado,SALAMANCA,CALLE SERRANO 84 Madrid,-3.6865112,40.43159710000001
2019-06-22 20:00:00,2019-06-22 00:00:00,2019,Tarde,Vispera,Caida,Leve,Despejado,SALAMANCA,CALLE SERRANO 84 Madrid,-3.6865112,40.43159710000001
2019-06-22 19:00:00,2019-06-22 00:00:00,2019,Tarde,Vispera,Caida,Moderada,Despejado,CIUDAD LINEAL,CALLE ALCALA 317 Madrid,-3.6512057,40.4328676
2019-06-23 20:00:00,2019-06-23 00:00:00,2019,Tarde,Festivo,Caida,Moderada,Despejado,USERA,AVDA. CORDOBA 21 Madrid,-3.6973634,40.3836464
2019-06-23 20:00:00,2019-06-23 00:00:00,2019,Tarde,Festivo,Colision,Grave,Despejado,CIUDAD LINEAL,CALLE VIRGEN DE LA ALEGRIA 21 Madrid,-3.65688,40.43414
2019-06-23 18:00:00,2019-06-23 00:00:00,2019,Tarde,Festivo,Colision,Leve,Despejado,TETUÁN,CALLE BRAVO MURILLO 246 Madrid,-3.6993421,40.4594127
2019-06-24 20:00:00,2019-06-24 00:00:00,2019,Tarde,Laborable,Caida,Grave,Despejado,CHAMBERÍ,CALLE RAIMUNDO FERNANDEZ VILLAVERDE 54 Madrid,-3.6943572,40.44609620000001
2019-06-25 04:00:00,2019-06-25 00:00:00,2019,Noche,Laborable,Colision,Leve,Despejado,CHAMBERÍ,CALLE JOSE ABASCAL / CALLE FERNANDEZ DE LA HOZ Madrid,-3.6945574,40.4382187
2019-06-26 20:00:00,2019-06-26 00:00:00,2019,Tarde,Laborable,Colision,Leve,Despejado,RETIRO,PLAZA. INDEPENDENCIA 8 Madrid,-3.6890871,40.41923170000001
2019-06-26 17:00:00,2019-06-26 00:00:00,2019,Tarde,Laborable,Colision,Leve,Despejado,RETIRO,PASEO. INFANTA ISABEL 4 Madrid,-3.6855052,40.4062392
2019-06-26 16:00:00,2019-06-26 00:00:00,2019,Tarde,Laborable,Colision,Leve,Despejado,CHAMBERÍ,CALLE CRISTOBAL BORDIU 39 Madrid,-3.697838199999999,40.44317700000001
2019-06-27 20:00:00,2019-06-27 00:00:00,2019,Tarde,Laborable,Colision,Leve,Despejado,ARGANZUELA,CALLE TOMAS BRETON 2 Madrid,-3.696107599999999,40.3974716
2019-06-28 23:00:00,2019-06-28 00:00:00,2019,Noche,Laborable,Imprudencia,Moderada,Despejado,USERA,CALLE MARCELO USERA 1 Madrid,-3.7000441,40.3876787
2019-06-28 21:00:00,2019-06-28 00:00:00,2019,Noche,Laborable,Colision,Moderada,Despejado,TETUÁN,CALLE BRAVO MURILLO 231 Madrid,-3.7017308,40.4575781
2019-06-28 14:00:00,2019-06-28 00:00:00,2019,Tarde,Laborable,Caida,Moderada,Despejado,CIUDAD LINEAL,CALLE RAFAEL BERGAMIN 20A Madrid,-3.6616341,40.4499399
2019-06-28 11:00:00,2019-06-28 00:00:00,2019,Mañana,Laborable,Colision,Moderada,Despejado,CENTRO,CALLE PUEBLA / CALLE BARCO Madrid,-3.7026157,40.4220869
2019-06-28 11:00:00,2019-06-28 00:00:00,2019,Mañana,Laborable,Caida,Moderada,Despejado,CENTRO,CALLE SAN BERNARDO 83 Madrid,-3.7064185,40.4282234
2019-06-29 19:00:00,2019-06-29 00:00:00,2019,Tarde,Vispera,Caida,Moderada,Despejado,LATINA,PQUE. MADRID RIO / GTA. PUENTE DE SEGOVIA Madrid,-3.7234566,40.41309320000001
2019-06-29 08:00:00,2019-06-29 00:00:00,2019,Mañana,Vispera,Colision,Leve,Despejado,FUENCARRAL-EL PARDO,GTA. SANTUARIO DE TISCAR / AVDA. MONASTERIO DE EL ESCORIAL Madrid,-3.7132517,40.5035189
2019-06-29 08:00:00,2019-06-29 00:00:00,2019,Mañana,Vispera,Colision,Leve,Despejado,FUENCARRAL-EL PARDO,GTA. SANTUARIO DE TISCAR / AVDA. MONASTERIO DE EL ESCORIAL Madrid,-3.7132517,40.5035189
2019-06-30 16:00:00,2019-06-30 00:00:00,2019,Tarde,Festivo,Colision,Moderada,Despejado,LATINA,GTA. PUENTE DE SEGOVIA 1 Madrid,-3.7245489,40.4135454
2019-06-30 08:00:00,2019-06-30 00:00:00,2019,Mañana,Festivo,Colision,Leve,Despejado,PUENTE DE VALLECAS,IDB. PARQUE LINEAL DEL MANZANARES Madrid,-3.6781098,40.35628270000001
2019-06-30 08:00:00,2019-06-30 00:00:00,2019,Mañana,Festivo,Colision,Leve,Despejado,PUENTE DE VALLECAS,IDB. PARQUE LINEAL DEL MANZANARES Madrid,-3.6781098,40.35628270000001
2019-07-01 17:00:00,2019-07-01 00:00:00,2019,Tarde,Laborable,Colision,Leve,Despejado,SALAMANCA,CALLE CONDE DE PEÑALVER / CALLE HERMOSILLA Madrid,-3.6756247,40.4259396
2019-07-01 14:00:00,2019-07-01 00:00:00,2019,Tarde,Laborable,Caida,Moderada,Despejado,SALAMANCA,CALLE DIEGO DE LEON / CALLE GENERAL PARDIÑAS Madrid,-3.6778345,40.434667
2019-07-01 09:00:00,2019-07-01 00:00:00,2019,Mañana,Laborable,Colision,Leve,Despejado,CENTRO,CALLE FUENCARRAL / GTA. BILBAO Madrid,-3.7021887,40.4285348
2019-07-02 20:00:00,2019-07-02 00:00:00,2019,Tarde,Laborable,Caida,Moderada,Despejado,FUENCARRAL-EL PARDO,"CALLE MONASTERIO DE OSEIRA, 17B (ANILLO VERDE, 58) Madrid",-3.6964595,40.51051010000001
2019-07-03 11:00:00,2019-07-03 00:00:00,2019,Mañana,Laborable,Colision,Leve,Despejado,CENTRO,CALLE TORRECILLA DEL LEAL / CALLE OLMO Madrid,-3.6994721,40.411559
2019-07-04 21:00:00,2019-07-04 00:00:00,2019,Noche,Laborable,Colision,Leve,Despejado,SALAMANCA,CALLE CLAUDIO COELLO 14 Madrid,-3.6868914,40.4220546
2019-07-04 20:00:00,2019-07-04 00:00:00,2019,Tarde,Laborable,Caida,Leve,Despejado,CENTRO,CALLE BARCELO 5 Madrid,-3.7007464,40.4265749
2019-07-04 04:00:00,2019-07-04 00:00:00,2019,Noche,Laborable,Otro,Leve,Despejado,CENTRO,CALLE ALCALA 15 Madrid,-3.700472199999999,40.417865
2019-07-04 04:00:00,2019-07-04 00:00:00,2019,Noche,Laborable,Otro,Leve,Despejado,CENTRO,CALLE ALCALA 15 Madrid,-3.700472199999999,40.417865
2019-07-04 01:00:00,2019-07-04 00:00:00,2019,Noche,Laborable,Colision,Leve,Despejado,CENTRO,CALLE CASINO / CALLE SANTIAGO EL VERDE Madrid,-3.7047348,40.4068865
2019-07-05 20:00:00,2019-07-05 00:00:00,2019,Tarde,Laborable,Colision,Leve,Despejado,TETUÁN,CALLE MULLER / CALLE AZUCENAS Madrid,-3.699367799999999,40.4636354
2019-07-06 16:00:00,2019-07-06 00:00:00,2019,Tarde,Vispera,Imprudencia,Leve,Despejado,CENTRO,CUSTA. SAN VICENTE 1 Madrid,-3.7157113,40.42015429999999
2019-07-06 16:00:00,2019-07-06 00:00:00,2019,Tarde,Vispera,Imprudencia,Leve,Despejado,CENTRO,CUSTA. SAN VICENTE 1 Madrid,-3.7157113,40.42015429999999
2019-07-06 09:00:00,2019-07-06 00:00:00,2019,Mañana,Vispera,Caida,Moderada,Despejado,CENTRO,HORTALEZA Madrid,-3.6424986000000006,40.4693874
2019-07-07 20:00:00,2019-07-07 00:00:00,2019,Tarde,Festivo,Imprudencia,Moderada,Despejado,RETIRO,CALLE CERRO DE LA PLATA 15 Madrid,-3.67406,40.3978899
2019-07-08 16:00:00,2019-07-08 00:00:00,2019,Tarde,Laborable,Caida,Moderada,Despejado,RETIRO,PASEO. FERNAN NUÑEZ 2 Madrid,-3.686175299999999,40.4094355
2019-07-08 14:00:00,2019-07-08 00:00:00,2019,Tarde,Laborable,Colision,Leve,Despejado,CENTRO,CALLE SEGOVIA 8 Madrid,-3.7103844,40.4136244
2019-07-08 11:00:00,2019-07-08 00:00:00,2019,Mañana,Laborable,Colision,Leve,Despejado,SALAMANCA,CALLE SERRANO / CALLE MARIA DE MOLINA Madrid,-3.686275199999999,40.437866
2019-07-08 08:00:00,2019-07-08 00:00:00,2019,Mañana,Laborable,Colision,Moderada,Despejado,VILLAVERDE,AVDA. LOS ROSALES 200 Madrid,-3.6654544,40.3355839
2019-07-09 11:00:00,2019-07-09 00:00:00,2019,Mañana,Laborable,Colision,Leve,Despejado,TETUÁN,CALLE RAIMUNDO FERNANDEZ VILLAVERDE 67 Madrid,-3.6935868,40.4465648
2019-07-13 22:00:00,2019-07-13 00:00:00,2019,Noche,Vispera,Imprudencia,Moderada,Despejado,CARABANCHEL,AVDA. MANZANARES / PQUE. MADRID RIO Madrid,-3.7023738,40.3947463
2019-07-14 13:00:00,2019-07-14 00:00:00,2019,Tarde,Festivo,Imprudencia,Leve,Despejado,RETIRO,PASEO. FERNAN NUÑEZ 1 Madrid,-3.680757700000001,40.41784579999999
2019-07-14 13:00:00,2019-07-14 00:00:00,2019,Tarde,Festivo,Imprudencia,Leve,Despejado,RETIRO,PASEO. FERNAN NUÑEZ 1 Madrid,-3.680757700000001,40.41784579999999
2019-07-15 19:00:00,2019-07-15 00:00:00,2019,Tarde,Laborable,Caida,Leve,Despejado,RETIRO,CALLE O'DONNELL 18 Madrid,-3.677013,40.42140120000001
2019-07-15 17:00:00,2019-07-15 00:00:00,2019,Tarde,Laborable,Colision,Moderada,Despejado,PUENTE DE VALLECAS,CALLE HERMANOS CARPI / AVDA. PEÑA PRIETA Madrid,-3.665663799999999,40.401137
2019-07-16 19:00:00,2019-07-16 00:00:00,2019,Tarde,Laborable,Caida,Moderada,Despejado,CENTRO,CALLE ARGANZUELA 16 Madrid,-3.7098114,40.4078701
2019-07-17 22:00:00,2019-07-17 00:00:00,2019,Noche,Laborable,Caida,Leve,Despejado,CENTRO,CALLE GRAN VIA / CALLE CLAVEL Madrid,-3.6996684,40.41974949999999
2019-07-17 20:00:00,2019-07-17 00:00:00,2019,Tarde,Laborable,Imprudencia,Leve,Despejado,LATINA,"PQUE. MADRID RIO, +00300E Madrid",-3.6844995,40.4152606
2019-07-17 20:00:00,2019-07-17 00:00:00,2019,Tarde,Laborable,Imprudencia,Leve,Despejado,LATINA,"PQUE. MADRID RIO, +00300E Madrid",-3.6844995,40.4152606
2019-07-17 19:00:00,2019-07-17 00:00:00,2019,Tarde,Laborable,Colision,Leve,Despejado,ARGANZUELA,PASEO. DELICIAS 59 Madrid,-3.6936841,40.4010032
2019-07-18 19:00:00,2019-07-18 00:00:00,2019,Tarde,Laborable,Caida,Leve,Despejado,CENTRO,CUSTA. VEGA 3 Madrid,-3.7037902,40.4167754
2019-07-18 18:00:00,2019-07-18 00:00:00,2019,Tarde,Laborable,Caida,Leve,Despejado,SALAMANCA,CALLE GOYA CON CALLE GENERAL PARDIÑAS Madrid,-3.678650799999999,40.4249124
2019-07-20 15:00:00,2019-07-20 00:00:00,2019,Tarde,Vispera,Caida,Leve,Despejado,CENTRO,FRENTE FAROLA Nº 6 Madrid,-3.7060897000000006,40.41631629999999
2019-07-21 22:00:00,2019-07-21 00:00:00,2019,Noche,Festivo,Caida,Moderada,Despejado,RETIRO,CALLE DOCTOR ESQUERDO 64 Madrid,-3.6701672,40.4140078
2019-07-21 21:00:00,2019-07-21 00:00:00,2019,Noche,Festivo,Imprudencia,Leve,Despejado,CENTRO,CALLE FUENCARRAL 16 Madrid,-3.7009776,40.42151629999999
2019-07-21 21:00:00,2019-07-21 00:00:00,2019,Noche,Festivo,Imprudencia,Leve,Despejado,CENTRO,CALLE FUENCARRAL 16 Madrid,-3.7009776,40.42151629999999
2019-07-22 20:00:00,2019-07-22 00:00:00,2019,Tarde,Laborable,Caida,Moderada,Despejado,CENTRO,PASEO. RECOLETOS 13 Madrid,-3.69272,40.42137
2019-07-22 19:00:00,2019-07-22 00:00:00,2019,Tarde,Laborable,Caida,Moderada,Despejado,CENTRO,CUSTA. VEGA 1 Madrid,-3.7037902,40.4167754
2019-07-22 08:00:00,2019-07-22 00:00:00,2019,Mañana,Laborable,Caida,Leve,Lluvia,TETUÁN,CALLE NAVARRA / CALLE PAMPLONA Madrid,-3.7046302,40.4536411
2019-07-23 21:00:00,2019-07-23 00:00:00,2019,Noche,Laborable,Caida,Moderada,Lluvia,SALAMANCA,GTA. EMILIO CASTELAR Madrid,-3.6886274,40.4353089
2019-07-23 20:00:00,2019-07-23 00:00:00,2019,Tarde,Laborable,Caida,Moderada,Despejado,MONCLOA-ARAVACA,PLAZA. MORERAS 1 Madrid,-3.7335346,40.4254679
2019-07-23 13:00:00,2019-07-23 00:00:00,2019,Tarde,Laborable,Caida,Leve,Despejado,CHAMARTÍN,PASEO. CASTELLANA 86 Madrid,-3.6908309,40.4427867
2019-07-24 23:00:00,2019-07-24 00:00:00,2019,Noche,Laborable,Colision,Moderada,Despejado,CENTRO,GTA. ATOCHA-REINA SOFIA Madrid,-3.6945569,40.4079123
2019-07-26 22:00:00,2019-07-26 00:00:00,2019,Noche,Laborable,Colision,Moderada,Despejado,TETUÁN,CALLE AZUCENAS 6 Madrid,-3.6974894,40.4632357
2019-07-26 12:00:00,2019-07-26 00:00:00,2019,Mañana,Laborable,Colision,Leve,Despejado,CHAMBERÍ,PASEO. CASTELLANA 43 Madrid,-3.6896221,40.4354529
2019-07-27 18:00:00,2019-07-27 00:00:00,2019,Tarde,Vispera,Caida,Moderada,Despejado,RETIRO,CALLE ALFONSO XII / CALLE CLAUDIO MOYANO Madrid,-3.688735,40.409205
2019-07-28 13:00:00,2019-07-28 00:00:00,2019,Tarde,Festivo,Colision,Leve,Despejado,RETIRO,CALLE ALFONSO XII / CALLE CASADO DEL ALISAL Madrid,-3.6889588,40.4140031
2019-07-29 13:00:00,2019-07-29 00:00:00,2019,Tarde,Laborable,Colision,Leve,Despejado,ARGANZUELA,CALLE MANZANARES / CALLE LINNEO Madrid,-3.720507099999999,40.412731
2019-07-30 23:00:00,2019-07-30 00:00:00,2019,Noche,Laborable,Caida,Leve,Despejado,CENTRO,CUESTA DE LA VEGA Madrid,-3.715925,40.4145883
2019-07-30 21:00:00,2019-07-30 00:00:00,2019,Noche,Laborable,Colision,Moderada,Despejado,SALAMANCA,CALLE DOCTOR ESQUERDO 9 Madrid,-3.6683053,40.42668099999999
2019-07-30 19:00:00,2019-07-30 00:00:00,2019,Tarde,Laborable,Colision,Moderada,Despejado,ARGANZUELA,CALLE SANTA MARIA LA REAL DE NIEVA 9 Madrid,-3.718321899999999,40.4061088
2019-07-30 19:00:00,2019-07-30 00:00:00,2019,Tarde,Laborable,Colision,Leve,Despejado,ARGANZUELA,CALLE SANTA MARIA LA REAL DE NIEVA 9 Madrid,-3.718321899999999,40.4061088
2019-07-30 08:00:00,2019-07-30 00:00:00,2019,Mañana,Laborable,Colision,Moderada,Despejado,BARAJAS,AVDA. SUR DEL AEROPUERTO DE BARAJAS / AUTOV. M-22 Madrid,-3.5776088,40.45121
2019-07-31 22:00:00,2019-07-31 00:00:00,2019,Noche,Laborable,Colision,Leve,Despejado,CHAMBERÍ,CALLE GENOVA / CALLE ZURBANO Madrid,-3.693862,40.42671300000001
2019-07-31 10:00:00,2019-07-31 00:00:00,2019,Mañana,Laborable,Caida,Leve,Despejado,ARGANZUELA,PASEO. SANTA MARIA DE LA CABEZA / CALLE FRAY LUIS DE LEON Madrid,-3.6987141,40.4049996
2019-08-02 16:00:00,2019-08-02 00:00:00,2019,Tarde,Laborable,Colision,Moderada,Despejado,TETUÁN,CALLE VIA LIMITE / CALLE ALCOLEA Madrid,-3.6902704,40.4732502
2019-08-02 12:00:00,2019-08-02 00:00:00,2019,Mañana,Laborable,Colision,Moderada,Despejado,CENTRO,CALLE MEJIA LEQUERICA / CALLE SAGASTA Madrid,-3.6994198,40.4284847
2019-08-02 03:00:00,2019-08-02 00:00:00,2019,Noche,Laborable,Caida,Leve,Despejado,ARGANZUELA,CALLE SEGOVIA 43 Madrid,-3.7173589,40.41368629999999
2019-08-03 04:00:00,2019-08-03 00:00:00,2019,Noche,Vispera,Caida,Leve,Despejado,CENTRO,CUSTA. VEGA 3 Madrid,-3.7037902,40.4167754
2019-08-05 22:00:00,2019-08-05 00:00:00,2019,Noche,Laborable,Caida,Grave,Despejado,LATINA,CALLE CONCEJAL FRANCISCO JOSE JIMENEZ MARTIN 66 Madrid,-3.7398733,40.4017478
2019-08-05 20:00:00,2019-08-05 00:00:00,2019,Tarde,Laborable,Colision,Moderada,Despejado,LATINA,AVDA. AVIACION / CTRA. BARRIO DE LA FORTUNA Madrid,-3.76586,40.37271
2019-08-05 17:00:00,2019-08-05 00:00:00,2019,Tarde,Laborable,Caida,Leve,Despejado,CHAMARTÍN,CALLE LOPEZ DE HOYOS 100 Madrid,-3.674979,40.44333820000001
2019-08-05 13:00:00,2019-08-05 00:00:00,2019,Tarde,Laborable,Imprudencia,Leve,Despejado,RETIRO,CALLE CLAUDIO MOYANO 1 Madrid,-3.6894019,40.4097633
2019-08-05 13:00:00,2019-08-05 00:00:00,2019,Tarde,Laborable,Imprudencia,Leve,Despejado,RETIRO,CALLE CLAUDIO MOYANO 1 Madrid,-3.6894019,40.4097633
2019-08-06 07:00:00,2019-08-06 00:00:00,2019,Mañana,Laborable,Colision,Leve,Despejado,CENTRO,PASEO. PRADO / CALLE ALCALA Madrid,-3.6936264,40.4191319
2019-08-07 04:00:00,2019-08-07 00:00:00,2019,Noche,Laborable,Caida,Moderada,Despejado,CARABANCHEL,CALLE MARAVEDI 12 Madrid,-3.7481671,40.36318170000001
2019-08-08 22:00:00,2019-08-08 00:00:00,2019,Noche,Laborable,Colision,Grave,Despejado,MORATALAZ,CALLE ARROYO DE LA MEDIA LEGUA 43 Madrid,-3.6539795,40.41295170000001
2019-08-14 19:00:00,2019-08-14 00:00:00,2019,Tarde,Vispera,Caida,Moderada,Despejado,CARABANCHEL,"ANILLO VERDE CICLISTA, PKM 32 Madrid",-3.764952199999999,40.4006459
2019-08-15 17:00:00,2019-08-15 00:00:00,2019,Tarde,Festivo,Colision,Moderada,Despejado,SAN BLAS-CANILLEJAS,GLORIETA SOBRE M-40 Madrid,-3.6970276,40.36453909999999
2019-08-16 21:00:00,2019-08-16 00:00:00,2019,Noche,Laborable,Caida,Moderada,Despejado,USERA,AVDA. MANZANARES / CALLE SAN GRACIANO Madrid,-3.7026074,40.3931787
2019-08-19 19:00:00,2019-08-19 00:00:00,2019,Tarde,Laborable,Colision,Leve,Despejado,SALAMANCA,CALLE VELAZQUEZ 69 Madrid,-3.6838482,40.4308701
2019-08-19 13:00:00,2019-08-19 00:00:00,2019,Tarde,Laborable,Colision,Leve,Despejado,MORATALAZ,CALLE ARROYO BELINCOSO 9 Madrid,-3.6532002,40.4094013
2019-08-20 19:00:00,2019-08-20 00:00:00,2019,Tarde,Laborable,Colision,Leve,Despejado,RETIRO,PASEO. REPUBLICA DE CUBA 6 Madrid,-3.6830708,40.4140416
2019-08-20 19:00:00,2019-08-20 00:00:00,2019,Tarde,Laborable,Colision,Leve,Despejado,RETIRO,PASEO. REPUBLICA DE CUBA 6 Madrid,-3.6830708,40.4140416
2019-08-21 20:00:00,2019-08-21 00:00:00,2019,Tarde,Laborable,Colision,Leve,Despejado,SALAMANCA,CALLE PRINCIPE DE VERGARA / CALLE HERMOSILLA Madrid,-3.6801264,40.4261381
2019-08-21 13:00:00,2019-08-21 00:00:00,2019,Tarde,Laborable,Colision,Leve,Despejado,USERA,CALLE MARCELO USERA / CALLE SAN ANTONIO DE PADUA Madrid,-3.701962,40.3865055
2019-08-22 15:00:00,2019-08-22 00:00:00,2019,Tarde,Laborable,Caida,Leve,Despejado,PUENTE DE VALLECAS,AVDA. PEÑA PRIETA / CALLE MENDIVIL Madrid,-3.6664644,40.4004357
2019-08-22 06:00:00,2019-08-22 00:00:00,2019,Mañana,Laborable,Otro,Leve,Despejado,CHAMBERÍ,CALLE BRAVO MURILLO / CALLE VIRIATO Madrid,-3.7042835,40.4360373
2019-08-23 14:00:00,2019-08-23 00:00:00,2019,Tarde,Laborable,Colision,Moderada,Despejado,USERA,AVDA. POBLADOS / AUTOV. A-42 Madrid,-3.7347719,40.373821
2019-08-24 20:00:00,2019-08-24 00:00:00,2019,Tarde,Vispera,Imprudencia,Leve,Despejado,MONCLOA-ARAVACA,CTRA. ZARZON 6 Madrid,-3.7645045,40.40743120000001
2019-08-24 20:00:00,2019-08-24 00:00:00,2019,Tarde,Vispera,Imprudencia,Leve,Despejado,MONCLOA-ARAVACA,CTRA. ZARZON 6 Madrid,-3.7645045,40.40743120000001
2019-08-25 19:00:00,2019-08-25 00:00:00,2019,Tarde,Festivo,Colision,Leve,Despejado,SALAMANCA,CALLE SERRANO 30 Madrid,-3.6875416,40.4246478
2019-08-26 16:00:00,2019-08-26 00:00:00,2019,Tarde,Laborable,Imprudencia,Leve,Lluvia,MONCLOA-ARAVACA,PASEO. CAMOENS Y VALERO 2 Madrid,-3.7292713,40.432075
2019-08-27 22:00:00,2019-08-27 00:00:00,2019,Noche,Laborable,Colision,Leve,Despejado,CENTRO,CALLE ATOCHA / PLAZA. EMPERADOR CARLOS V Madrid,-3.691912,40.4091669
2019-08-27 20:00:00,2019-08-27 00:00:00,2019,Tarde,Laborable,Caida,Moderada,Despejado,ARGANZUELA,PASEO. PONTONES / PASEO. MELANCOLICOS Madrid,-3.7203707,40.4039831
2019-08-28 13:00:00,2019-08-28 00:00:00,2019,Tarde,Laborable,Colision,Moderada,Despejado,CHAMBERÍ,PASEO. GENERAL MARTINEZ CAMPOS 41 Madrid,-3.6917622,40.43546420000001
2019-08-29 23:00:00,2019-08-29 00:00:00,2019,Noche,Laborable,Caida,Leve,Despejado,CHAMBERÍ,CALLE LUCHANA 30 Madrid,-3.699003,40.4312433
2019-08-29 15:00:00,2019-08-29 00:00:00,2019,Tarde,Laborable,Imprudencia,Leve,Despejado,VILLAVERDE,PASEO. ALBERTO PALACIOS 11 Madrid,-3.710185,40.346149
2019-08-29 15:00:00,2019-08-29 00:00:00,2019,Tarde,Laborable,Imprudencia,Leve,Despejado,VILLAVERDE,PASEO. ALBERTO PALACIOS 11 Madrid,-3.710185,40.346149
2019-08-29 03:00:00,2019-08-29 00:00:00,2019,Noche,Laborable,Colision,Leve,Despejado,ARGANZUELA,CALLE SEGOVIA / RONDA. SEGOVIA Madrid,-3.716856899999999,40.4139115
2019-08-30 17:00:00,2019-08-30 00:00:00,2019,Tarde,Laborable,Imprudencia,Moderada,Despejado,CENTRO,CALLE MARQUES DE CUBAS 18 Madrid,-3.6959549,40.41612670000001
2019-08-31 19:00:00,2019-08-31 00:00:00,2019,Tarde,Vispera,Imprudencia,Leve,Despejado,BARAJAS,"CAMINO EN ZONA DENOMIDADA COMO ""ESPACIO MÉXICO"" Madrid",-3.7037902,40.4167754
2019-09-01 22:00:00,2019-09-01 00:00:00,2019,Noche,Festivo,Colision,Moderada,Despejado,PUENTE DE VALLECAS,AVDA. PABLO NERUDA 58 Madrid,-3.64554,40.38782
2019-09-01 08:00:00,2019-09-01 00:00:00,2019,Mañana,Festivo,Colision,Grave,Despejado,LATINA,AVDA. NUESTRA SEÑORA DE VALVANERA 155 Madrid,-3.741922499999999,40.3935862
2019-09-02 14:00:00,2019-09-02 00:00:00,2019,Tarde,Laborable,Colision,Leve,Despejado,ARGANZUELA,PASEO. DELICIAS 65A Madrid,-3.6939817,40.3986575
2019-09-03 16:00:00,2019-09-03 00:00:00,2019,Tarde,Laborable,Caida,Leve,Despejado,TETUÁN,CALLE SAN GERMAN / CALLE GENERAL CABRERA Madrid,-3.6959242,40.45645469999999
2019-09-05 00:00:00,2019-09-05 00:00:00,2019,Noche,Laborable,Otro,Moderada,Despejado,CENTRO,CALLE CLAVEL / CALLE CABALLERO DE GRACIA Madrid,-3.699741,40.4192921
2019-09-04 18:00:00,2019-09-04 00:00:00,2019,Tarde,Laborable,Caida,Leve,Despejado,SALAMANCA,CALLE GENERAL ORAA / CALLE GENERAL PARDIÑAS Madrid,-3.677737799999999,40.4358844
2019-09-04 11:00:00,2019-09-04 00:00:00,2019,Mañana,Laborable,Caida,Moderada,Despejado,CHAMBERÍ,CALLE ALBERTO AGUILERA 16 Madrid,-3.7082779,40.42998370000001
2019-09-05 19:00:00,2019-09-05 00:00:00,2019,Tarde,Laborable,Imprudencia,Leve,Despejado,TETUÁN,CALLE FRANCOS RODRIGUEZ 14 Madrid,-3.7036344,40.4550277
2019-09-05 19:00:00,2019-09-05 00:00:00,2019,Tarde,Laborable,Imprudencia,Leve,Despejado,TETUÁN,CALLE FRANCOS RODRIGUEZ 14 Madrid,-3.7036344,40.4550277
2019-09-05 19:00:00,2019-09-05 00:00:00,2019,Tarde,Laborable,Colision,Moderada,Despejado,CENTRO,CALLE ALCALA / CALLE MARQUES DE CUBAS Madrid,-3.695847600000001,40.418844
2019-09-05 18:00:00,2019-09-05 00:00:00,2019,Tarde,Laborable,Colision,Moderada,Despejado,CIUDAD LINEAL,CALLE ARTURO SORIA / CALLE ASUNCION PEREZ VIZCAINO Madrid,-3.6651415,40.4633547
2019-09-06 14:00:00,2019-09-06 00:00:00,2019,Tarde,Laborable,Colision,Moderada,Despejado,CARABANCHEL,AVDA. POBLADOS / AUTOV. A-42 Madrid,-3.7347719,40.373821
2019-09-07 13:00:00,2019-09-07 00:00:00,2019,Tarde,Vispera,Colision,Leve,Despejado,RETIRO,PASEO. INFANTA ISABEL / ESTFE. ATOCHA Madrid,-3.6893992,40.4078627
2019-09-07 06:00:00,2019-09-07 00:00:00,2019,Mañana,Vispera,Caida,Moderada,Despejado,CENTRO,CALLE SEGOVIA 29 Madrid,-3.715200099999999,40.4138075
2019-09-08 21:00:00,2019-09-08 00:00:00,2019,Noche,Festivo,Caida,Leve,Despejado,MONCLOA-ARAVACA,CALLE IRUN / CALLE CADARSO Madrid,-3.715698599999999,40.42249210000001
2019-09-08 12:00:00,2019-09-08 00:00:00,2019,Mañana,Festivo,Imprudencia,Leve,Despejado,CARABANCHEL,PARQUE LINEAL DEL MANZANARES Madrid,-3.6781098,40.35628270000001
2019-09-08 12:00:00,2019-09-08 00:00:00,2019,Mañana,Festivo,Imprudencia,Leve,Despejado,CARABANCHEL,PARQUE LINEAL DEL MANZANARES Madrid,-3.6781098,40.35628270000001
2019-09-09 19:00:00,2019-09-09 00:00:00,2019,Tarde,Laborable,Imprudencia,Leve,Despejado,CENTRO,PLAZA DE ORIENTE Madrid,-3.7120978,40.4186362
2019-09-09 19:00:00,2019-09-09 00:00:00,2019,Tarde,Laborable,Imprudencia,Moderada,Despejado,CENTRO,PLAZA DE ORIENTE Madrid,-3.7120978,40.4186362
2019-09-09 13:00:00,2019-09-09 00:00:00,2019,Tarde,Laborable,Imprudencia,Leve,Despejado,SALAMANCA,CALLE DON RAMON DE LA CRUZ 91 Madrid,-3.673513,40.4286818
2019-09-09 13:00:00,2019-09-09 00:00:00,2019,Tarde,Laborable,Imprudencia,Leve,Despejado,SALAMANCA,CALLE DON RAMON DE LA CRUZ 91 Madrid,-3.673513,40.4286818
2019-09-10 22:00:00,2019-09-10 00:00:00,2019,Noche,Laborable,Colision,Moderada,Despejado,CHAMBERÍ,PASEO. CASTELLANA 63 Madrid,-3.6921924,40.4422526
2019-09-10 16:00:00,2019-09-10 00:00:00,2019,Tarde,Laborable,Colision,Leve,Despejado,CHAMARTÍN,CALLE PRINCIPE DE VERGARA 132 Madrid,-3.677818100000001,40.4432851
2019-09-10 13:00:00,2019-09-10 00:00:00,2019,Tarde,Laborable,Colision,Moderada,Despejado,MONCLOA-ARAVACA,CUSTA. SAN VICENTE / GTA. SAN VICENTE Madrid,-3.7202062000000007,40.4200208
2019-09-10 07:00:00,2019-09-10 00:00:00,2019,Mañana,Laborable,Colision,Moderada,Despejado,HORTALEZA,AVDA. NICETO ALCALA ZAMORA 4 Madrid,-3.6475357,40.4840115
2019-09-11 08:00:00,2019-09-11 00:00:00,2019,Mañana,Laborable,Colision,Leve,Despejado,CENTRO,CALLE CORREO / PLAZA. PUERTA DEL SOL Madrid,-3.7042567,40.4166339
2019-09-12 13:00:00,2019-09-12 00:00:00,2019,Tarde,Laborable,Caida,Leve,Despejado,SALAMANCA,CALLE ALCALA 59 Madrid,-3.6913659,40.41989470000001
2019-09-12 12:00:00,2019-09-12 00:00:00,2019,Mañana,Laborable,Imprudencia,Moderada,Despejado,CIUDAD LINEAL,SAN MAXIMILIANO 49 Madrid,-3.6525805,40.4258515
2019-09-12 11:00:00,2019-09-12 00:00:00,2019,Mañana,Laborable,Imprudencia,Moderada,Despejado,HORTALEZA,CALLE CARRION DE LOS CONDES 73 Madrid,-3.6581036,40.4760935
2019-09-13 15:00:00,2019-09-13 00:00:00,2019,Tarde,Laborable,Caida,Moderada,Lluvia,CENTRO,CALLE LOPE DE VEGA / PASEO. PRADO Madrid,-3.6939615,40.4139059
2019-09-14 16:00:00,2019-09-14 00:00:00,2019,Tarde,Vispera,Caida,Leve,Lluvia,CHAMBERÍ,CALLE LUCHANA 25 Madrid,-3.699351699999999,40.43141170000001
2019-09-14 12:00:00,2019-09-14 00:00:00,2019,Mañana,Vispera,Caida,Leve,Lluvia,VILLA DE VALLECAS,CALLE CERRO DEL MURMULLO 13 Madrid,-3.5831848,40.3651532
2019-09-14 02:00:00,2019-09-14 00:00:00,2019,Noche,Vispera,Caida,Leve,Despejado,SALAMANCA,CALLE ALCALA 70 Madrid,-3.6807813,40.4223558
2019-09-15 22:00:00,2019-09-15 00:00:00,2019,Noche,Festivo,Caida,Moderada,Despejado,CENTRO,PTA. TOLEDO / AVDA. GRAN VIA DE SAN FRANCISCO Madrid,-3.711796499999999,40.407377200000006
2019-09-16 17:00:00,2019-09-16 00:00:00,2019,Tarde,Laborable,Colision,Leve,Despejado,SALAMANCA,CALLE ALCALA / CALLE VELAZQUEZ Madrid,-3.6845087,40.420995
2019-09-16 16:00:00,2019-09-16 00:00:00,2019,Tarde,Laborable,Otro,Leve,Despejado,MONCLOA-ARAVACA,PASEO. FLORIDA 13 Madrid,-3.7217143,40.42144649999999
2019-09-17 23:00:00,2019-09-17 00:00:00,2019,Noche,Laborable,Colision,Leve,Despejado,CHAMBERÍ,CALLE JOSE ABASCAL 31 Madrid,-3.698419,40.43853800000001
2019-09-17 10:00:00,2019-09-17 00:00:00,2019,Mañana,Laborable,Colision,Leve,Despejado,ARGANZUELA,PASEO. VIRGEN DEL PUERTO / PASEO. VIRGEN DEL PUERTO Madrid,-3.7213361,40.41146260000001
2019-09-18 18:00:00,2019-09-18 00:00:00,2019,Tarde,Laborable,Colision,Moderada,Despejado,RETIRO,CALLE DOCTOR ESQUERDO 157 Madrid,-3.6696159,40.40903
2019-09-18 15:00:00,2019-09-18 00:00:00,2019,Tarde,Laborable,Imprudencia,Leve,Despejado,CENTRO,CALLE MAYOR 26 Madrid,-3.707230999999999,40.4164321
2019-09-18 15:00:00,2019-09-18 00:00:00,2019,Tarde,Laborable,Imprudencia,Moderada,Despejado,CENTRO,CALLE MAYOR 26 Madrid,-3.707230999999999,40.4164321
2019-09-19 17:00:00,2019-09-19 00:00:00,2019,Tarde,Laborable,Colision,Leve,Despejado,CENTRO,CALLE GRAN VIA / PLAZA. CALLEO Madrid,-3.7040627,40.4201907
2019-09-19 13:00:00,2019-09-19 00:00:00,2019,Tarde,Laborable,Colision,Moderada,Despejado,PUENTE DE VALLECAS,AVDA. ENTREVIAS / CALLE PADRE LLANOS Madrid,-3.6572722,40.37533639999999
2019-09-19 11:00:00,2019-09-19 00:00:00,2019,Mañana,Laborable,Imprudencia,Leve,Despejado,ARGANZUELA,PASEO. ACACIAS 3 Madrid,-3.703629,40.4044814
2019-09-19 11:00:00,2019-09-19 00:00:00,2019,Mañana,Laborable,Imprudencia,Leve,Despejado,ARGANZUELA,PASEO. ACACIAS 3 Madrid,-3.703629,40.4044814
2019-09-20 22:00:00,2019-09-20 00:00:00,2019,Noche,Laborable,Colision,Leve,Lluvia,CHAMBERÍ,CALLE MODESTO LAFUENTE / CALLE MARIA DE GUZMAN Madrid,-3.695801399999999,40.4440783
2019-09-21 14:00:00,2019-09-21 00:00:00,2019,Tarde,Vispera,Colision,Moderada,Despejado,TETUÁN,CALLE BRAVO MURILLO / CALLE LOPE DE HARO Madrid,-3.7014739,40.45748469999999
2019-09-22 12:00:00,2019-09-22 00:00:00,2019,Mañana,Festivo,Colision,Moderada,Despejado,CENTRO,CALLE SAGASTA / CALLE MEJIA LEQUERICA Madrid,-3.6994198,40.4284847
2019-09-23 22:00:00,2019-09-23 00:00:00,2019,Noche,Laborable,Caida,Leve,Despejado,MONCLOA-ARAVACA,CALLE PRINCESA / CALLE MARQUES DE URQUIJO Madrid,-3.7162192,40.4305992
2019-09-23 22:00:00,2019-09-23 00:00:00,2019,Noche,Laborable,Caida,Leve,Despejado,MONCLOA-ARAVACA,CALLE PRINCESA / CALLE MARQUES DE URQUIJO Madrid,-3.7162192,40.4305992
2019-09-23 21:00:00,2019-09-23 00:00:00,2019,Noche,Laborable,Caida,Moderada,Despejado,MORATALAZ,CALLE HACIENDA DE PAVONES / CALLE BRUJAS Madrid,-3.6283866,40.3989601
2019-09-23 19:00:00,2019-09-23 00:00:00,2019,Tarde,Laborable,Caida,Moderada,Despejado,MONCLOA-ARAVACA,ENTRE FAROLAS Nº 6 Y 7 Madrid,-3.7037902,40.4167754
2019-09-23 18:00:00,2019-09-23 00:00:00,2019,Tarde,Laborable,Colision,Leve,Despejado,CHAMBERÍ,PLAZA. ALONSO MARTINEZ 7 Madrid,-3.69515,40.42757
2019-09-23 18:00:00,2019-09-23 00:00:00,2019,Tarde,Laborable,Imprudencia,Leve,Despejado,CENTRO,PLAZA. PUERTA DEL SOL 6 Madrid,-3.7030921,40.4165927
2019-09-23 18:00:00,2019-09-23 00:00:00,2019,Tarde,Laborable,Imprudencia,Leve,Despejado,CENTRO,PLAZA. PUERTA DEL SOL 6 Madrid,-3.7030921,40.4165927
2019-09-24 20:00:00,2019-09-24 00:00:00,2019,Tarde,Laborable,Colision,Leve,Despejado,MORATALAZ,CALLE FUENTE CARRANTONA 61 Madrid,-3.6301015,40.410332200000006
2019-09-24 20:00:00,2019-09-24 00:00:00,2019,Tarde,Laborable,Colision,Leve,Despejado,MORATALAZ,CALLE FUENTE CARRANTONA 61 Madrid,-3.6301015,40.410332200000006
2019-09-24 14:00:00,2019-09-24 00:00:00,2019,Tarde,Laborable,Colision,Leve,Despejado,CHAMBERÍ,PASEO. CASTELLANA 63 Madrid,-3.6921924,40.4422526
2019-09-27 00:00:00,2019-09-27 00:00:00,2019,Noche,Laborable,Colision,Leve,Despejado,CENTRO,PLAZA. EMPERADOR CARLOS V / RONDA. ATOCHA Madrid,-3.6937181,40.4071179
2019-09-26 14:00:00,2019-09-26 00:00:00,2019,Tarde,Laborable,Colision,Leve,Despejado,SALAMANCA,CALLE SERRANO 29 Madrid,-3.6876892,40.4272745
2019-09-27 16:00:00,2019-09-27 00:00:00,2019,Tarde,Laborable,Colision,Leve,Despejado,ARGANZUELA,PASEO. SANTA MARIA DE LA CABEZA 42 Madrid,-3.6968798,40.403868
2019-09-27 13:00:00,2019-09-27 00:00:00,2019,Tarde,Laborable,Colision,Moderada,Despejado,CENTRO,PASEO. BAJO DE LA VIRGEN DEL PUERTO / FRENTE JARDINES DEL MORO Madrid,-3.7179746,40.4186984
2019-09-27 11:00:00,2019-09-27 00:00:00,2019,Mañana,Laborable,Colision,Grave,Despejado,VILLAVERDE,CALLE LAS NAVAS DE BUITRAGO / CALLE BERZOSA DE LOZOYA Madrid,-3.718789,40.33439370000001
2019-09-28 14:00:00,2019-09-28 00:00:00,2019,Tarde,Vispera,Caida,Leve,Despejado,MONCLOA-ARAVACA,CTRA. ZARZON 6 Madrid,-3.7645045,40.40743120000001
2019-09-29 22:00:00,2019-09-29 00:00:00,2019,Noche,Festivo,Caida,Moderada,Despejado,SALAMANCA,AVDA. AMERICA 12 Madrid,-3.675436299999999,40.43812930000001
2019-09-29 21:00:00,2019-09-29 00:00:00,2019,Noche,Festivo,Caida,Leve,Despejado,CHAMARTÍN,CALLE CARTAGENA 124 Madrid,-3.6746231,40.4410969
2019-09-29 21:00:00,2019-09-29 00:00:00,2019,Noche,Festivo,Caida,Leve,Despejado,CENTRO,RONDA. ATOCHA 8 Madrid,-3.6958945,40.4070603
2019-09-29 16:00:00,2019-09-29 00:00:00,2019,Tarde,Festivo,Colision,Moderada,Despejado,SALAMANCA,CALLE ALCALA / CALLE ALEJANDRO GONZALEZ Madrid,-3.6642013,40.430291
2019-09-29 12:00:00,2019-09-29 00:00:00,2019,Mañana,Festivo,Colision,Leve,Despejado,RETIRO,PASEO. FERNAN NUÑEZ / PASEO. REPUBLICA DE CUBA Madrid,-3.68027,40.41804000000001
2019-09-29 12:00:00,2019-09-29 00:00:00,2019,Mañana,Festivo,Colision,Leve,Despejado,RETIRO,PASEO. FERNAN NUÑEZ / PASEO. REPUBLICA DE CUBA Madrid,-3.68027,40.41804000000001
2019-09-29 06:00:00,2019-09-29 00:00:00,2019,Mañana,Festivo,Caida,Moderada,Despejado,CENTRO,CALLE GRAN VIA 72 Madrid,-3.7096594,40.4229084
2019-09-30 23:00:00,2019-09-30 00:00:00,2019,Noche,Laborable,Caida,Moderada,Despejado,CHAMBERÍ,CALLE GENOVA / CALLE ARGENSOLA Madrid,-3.693862,40.42671300000001
2019-09-30 16:00:00,2019-09-30 00:00:00,2019,Tarde,Laborable,Caida,Leve,Despejado,CHAMBERÍ,CALLE DONOSO CORTES / CALLE ANDRES MELLADO Madrid,-3.7142598,40.43644949999999
2019-09-30 10:00:00,2019-09-30 00:00:00,2019,Mañana,Laborable,Colision,Moderada,Despejado,SALAMANCA,PASEO. CASTELLANA 10 Madrid,-3.689316199999999,40.4276136
2019-10-01 21:00:00,2019-10-01 00:00:00,2019,Noche,Laborable,Colision,Moderada,Despejado,SALAMANCA,GTA. EMILIO CASTELAR / CALLE GENERAL ORAA Madrid,-3.688582499999999,40.4352118
2019-10-01 20:00:00,2019-10-01 00:00:00,2019,Tarde,Laborable,Imprudencia,Leve,Despejado,CIUDAD LINEAL,CALLE AMOS DE ESCALANTE 12 Madrid,-3.6414541,40.4354659
2019-10-01 20:00:00,2019-10-01 00:00:00,2019,Tarde,Laborable,Imprudencia,Grave,Despejado,CIUDAD LINEAL,CALLE AMOS DE ESCALANTE 12 Madrid,-3.6414541,40.4354659
2019-10-01 19:00:00,2019-10-01 00:00:00,2019,Tarde,Laborable,Colision,Moderada,Despejado,ARGANZUELA,CALLE EMBAJADORES 126 Madrid,-3.6985254,40.3993088
2019-10-01 19:00:00,2019-10-01 00:00:00,2019,Tarde,Laborable,Colision,Leve,Despejado,ARGANZUELA,CALLE EMBAJADORES 126 Madrid,-3.6985254,40.3993088
2019-10-02 21:00:00,2019-10-02 00:00:00,2019,Noche,Laborable,Caida,Moderada,Despejado,LATINA,CALLE GUAREÑA / PLAZA. DISTRITO LATINA Madrid,-3.765406,40.3867651
2019-10-02 19:00:00,2019-10-02 00:00:00,2019,Tarde,Laborable,Colision,Leve,Despejado,SALAMANCA,CALLE ARMADA ESPAÑOLA / PASEO. CASTELLANA Madrid,-3.6921545,40.41799839999999
2019-10-02 16:00:00,2019-10-02 00:00:00,2019,Tarde,Laborable,Caida,Moderada,Despejado,SALAMANCA,CALLE NUÑEZ DE BALBOA / CALLE JOSE ORTEGA Y GASSET Madrid,-3.6823481,40.4302442
2019-10-02 15:00:00,2019-10-02 00:00:00,2019,Tarde,Laborable,Imprudencia,Leve,Despejado,TETUÁN,CALLE CARNICER 11 Madrid,-3.7048288,40.4494662
2019-10-02 15:00:00,2019-10-02 00:00:00,2019,Tarde,Laborable,Imprudencia,Leve,Despejado,TETUÁN,CALLE CARNICER 11 Madrid,-3.7048288,40.4494662
2019-10-02 12:00:00,2019-10-02 00:00:00,2019,Mañana,Laborable,Caida,Moderada,Despejado,CENTRO,CALLE DOCTOR CORTEZO 1 Madrid,-3.7034155,40.41386470000001
2019-10-02 10:00:00,2019-10-02 00:00:00,2019,Mañana,Laborable,Colision,Moderada,Despejado,MORATALAZ,CALLE CAMINO DE LOS VINATEROS 65 Madrid,-3.6518644,40.4104075
2019-10-03 21:00:00,2019-10-03 00:00:00,2019,Noche,Laborable,Caida,Leve,Despejado,CENTRO,PLAZA. PUERTA DEL SOL / CALLE CARRETAS Madrid,-3.7032922,40.4167321
2019-10-03 14:00:00,2019-10-03 00:00:00,2019,Tarde,Laborable,Colision,Leve,Despejado,CHAMBERÍ,CALLE SANTA ENGRACIA 73 Madrid,-3.6990847,40.4352653
2019-10-03 14:00:00,2019-10-03 00:00:00,2019,Tarde,Laborable,Colision,Leve,Despejado,CHAMBERÍ,CALLE SANTA ENGRACIA 73 Madrid,-3.6990847,40.4352653
2019-10-03 10:00:00,2019-10-03 00:00:00,2019,Mañana,Laborable,Caida,Moderada,Despejado,TETUÁN,MINISTERIO DE DEFENSA Madrid,-3.6914297,40.4555903
2019-10-04 20:00:00,2019-10-04 00:00:00,2019,Tarde,Laborable,Caida,Leve,Despejado,SAN BLAS-CANILLEJAS,CALLE ALCALA 426 Madrid,-3.6367542,40.4380763
2019-10-04 17:00:00,2019-10-04 00:00:00,2019,Tarde,Laborable,Imprudencia,Leve,Despejado,LATINA,CALLE CARABIAS 1 Madrid,-3.76699,40.39881
2019-10-04 17:00:00,2019-10-04 00:00:00,2019,Tarde,Laborable,Imprudencia,Moderada,Despejado,LATINA,CALLE CARABIAS 1 Madrid,-3.76699,40.39881
2019-10-04 09:00:00,2019-10-04 00:00:00,2019,Mañana,Laborable,Colision,Moderada,Despejado,PUENTE DE VALLECAS,CALLE PUERTO DE BALBARAN 121 Madrid,-3.662807099999999,40.37887429999999
2019-10-04 00:00:00,2019-10-04 00:00:00,2019,Noche,Laborable,Colision,Leve,Despejado,ARGANZUELA,PASEO. ESPERANZA / PASEO. ESPERANZA Madrid,-3.7042027,40.40074910000001
2019-10-05 21:00:00,2019-10-05 00:00:00,2019,Noche,Vispera,Caida,Moderada,Despejado,USERA,AVDA. ANDALUCIA 1 Madrid,-3.691647999999999,40.3627995
2019-10-05 19:00:00,2019-10-05 00:00:00,2019,Tarde,Vispera,Caida,Leve,Despejado,CHAMBERÍ,CALLE ALBERTO AGUILERA 46 Madrid,-3.7122167,40.4305183
2019-10-05 16:00:00,2019-10-05 00:00:00,2019,Tarde,Vispera,Caida,Moderada,Despejado,FUENCARRAL-EL PARDO,GTA. SANTUARIO DE TISCAR Madrid,-3.713101699999999,40.5029473
2019-10-05 11:00:00,2019-10-05 00:00:00,2019,Mañana,Vispera,Caida,Moderada,Despejado,HORTALEZA,CALLE SANTA SUSANA 55 Madrid,-3.647987399999999,40.4803555
2019-10-05 02:00:00,2019-10-05 00:00:00,2019,Noche,Vispera,Imprudencia,Leve,Despejado,ARGANZUELA,GTA. SANTA MARIA DE LA CABEZA / GTA. SANTA MARIA DE LA CABEZA Madrid,-3.699473099999999,40.4009935
2019-10-05 02:00:00,2019-10-05 00:00:00,2019,Noche,Vispera,Imprudencia,Leve,Despejado,ARGANZUELA,GTA. SANTA MARIA DE LA CABEZA / GTA. SANTA MARIA DE LA CABEZA Madrid,-3.699473099999999,40.4009935
2019-10-06 17:00:00,2019-10-06 00:00:00,2019,Tarde,Festivo,Imprudencia,Leve,Despejado,SALAMANCA,CALLE GOYA / CALLE SERRANO Madrid,-3.687864,40.42543189999999
2019-10-06 17:00:00,2019-10-06 00:00:00,2019,Tarde,Festivo,Imprudencia,Leve,Despejado,SALAMANCA,CALLE GOYA / CALLE SERRANO Madrid,-3.687864,40.42543189999999
2019-10-07 22:00:00,2019-10-07 00:00:00,2019,Noche,Laborable,Caida,Moderada,Despejado,CENTRO,CALLE ALCALA 5 Madrid,-3.7018497,40.4173141
2019-10-07 17:00:00,2019-10-07 00:00:00,2019,Tarde,Laborable,Colision,Leve,Despejado,CENTRO,CALLE PALMA / CALLE SAN BERNARDO Madrid,-3.706727699999999,40.4266109
2019-10-08 12:00:00,2019-10-08 00:00:00,2019,Mañana,Laborable,Colision,Grave,Despejado,ARGANZUELA,PASEO. YESERIAS 51 Madrid,-3.7055828,40.3973594
2019-10-09 20:00:00,2019-10-09 00:00:00,2019,Tarde,Laborable,Colision,Leve,Despejado,LATINA,CALLE ESCALONA 48 Madrid,-3.7623347,40.3966808
2019-10-09 15:00:00,2019-10-09 00:00:00,2019,Tarde,Laborable,Colision,Leve,Despejado,SALAMANCA,CALLE MARIA DE MOLINA / CALLE PRINCIPE DE VERGARA Madrid,-3.6790792,40.4374085
2019-10-12 14:00:00,2019-10-12 00:00:00,2019,Tarde,Festivo,Colision,Leve,Despejado,CIUDAD LINEAL,CALLE VIRGEN DE LA ALEGRIA 4 Madrid,-3.6585582,40.4324353
2019-10-12 01:00:00,2019-10-12 00:00:00,2019,Noche,Festivo,Colision,Moderada,Despejado,RETIRO,CALLE ALFONSO XII 60 Madrid,-3.6888958,40.408742
2019-10-14 21:00:00,2019-10-14 00:00:00,2019,Noche,Laborable,Caida,Leve,Lluvia,SALAMANCA,CALLE JOSE ORTEGA Y GASSET / PLAZA. MARQUES DE SALAMANCA Madrid,-3.6792751,40.43009620000001
2019-10-14 10:00:00,2019-10-14 00:00:00,2019,Mañana,Laborable,Colision,Moderada,Despejado,CENTRO,PLAZA. PUERTA CERRADA 12 Madrid,-3.708452099999999,40.41387320000001
2019-10-14 10:00:00,2019-10-14 00:00:00,2019,Mañana,Laborable,Caida,Moderada,Despejado,RETIRO,CALLE SAMARIA / AVDA. NAZARET Madrid,-3.6733201,40.4115153
2019-10-14 08:00:00,2019-10-14 00:00:00,2019,Mañana,Laborable,Colision,Leve,Lluvia,USERA,CALLE EVANGELIOS / CALLE OLVIDO Madrid,-3.702456,40.3832602
2019-10-15 19:00:00,2019-10-15 00:00:00,2019,Tarde,Laborable,Colision,Leve,Despejado,CHAMBERÍ,CALLE SAGASTA / CALLE FRANCISCO DE ROJAS Madrid,-3.6994198,40.4284847
2019-10-16 22:00:00,2019-10-16 00:00:00,2019,Noche,Laborable,Colision,Grave,Despejado,CENTRO,GTA. RUIZ JIMENEZ / CALLE ALBERTO AGUILERA Madrid,-3.7054622,40.4296008
2019-10-17 23:00:00,2019-10-17 00:00:00,2019,Noche,Laborable,Colision,Leve,Despejado,CENTRO,CALLE GRAN VIA 46 Madrid,-3.7059286,40.4205934
2019-10-17 16:00:00,2019-10-17 00:00:00,2019,Tarde,Laborable,Colision,Leve,Despejado,CENTRO,PASEO. RECOLETOS 7 Madrid,-3.6930055,40.42078729999999
2019-10-17 16:00:00,2019-10-17 00:00:00,2019,Tarde,Laborable,Caida,Leve,Despejado,USERA,CALLE EVANGELIOS 1 Madrid,-3.69993,40.3830699
2019-10-17 15:00:00,2019-10-17 00:00:00,2019,Tarde,Laborable,Colision,Leve,Lluvia,CENTRO,CALLE SAN BERNARDO 27 Madrid,-3.7076807,40.422948
2019-10-17 07:00:00,2019-10-17 00:00:00,2019,Mañana,Laborable,Colision,Leve,Lluvia,MORATALAZ,AVDA. MORATALAZ / PLAZA. CORREGIDOR ALONSO DE AGUILAR Madrid,-3.6510935,40.4058287
2019-10-18 15:00:00,2019-10-18 00:00:00,2019,Tarde,Laborable,Colision,Leve,Despejado,SALAMANCA,CALLE SERRANO 1 Madrid,-3.688811,40.4208273
2019-10-18 08:00:00,2019-10-18 00:00:00,2019,Mañana,Laborable,Caida,Leve,Lluvia,TETUÁN,CALLE BRAVO MURILLO 133 Madrid,-3.7036926,40.4501331
2019-10-20 14:00:00,2019-10-20 00:00:00,2019,Tarde,Festivo,Colision,Leve,Lluvia,CENTRO,TRVA. SAN MATEO / CALLE HORTALEZA Madrid,-3.6978022,40.42503689999999
2019-10-20 14:00:00,2019-10-20 00:00:00,2019,Tarde,Festivo,Colision,Leve,Lluvia,TETUÁN,CALLE ORENSE 18 Madrid,-3.694997099999999,40.4503277
2019-10-20 13:00:00,2019-10-20 00:00:00,2019,Tarde,Festivo,Caida,Leve,Lluvia,SAN BLAS-CANILLEJAS,AVDA. CANILLEJAS A VICALVARO / CALLE SANTA TECLA Madrid,-3.6161975,40.4423621
2019-10-21 15:00:00,2019-10-21 00:00:00,2019,Tarde,Laborable,Imprudencia,Leve,Despejado,RETIRO,CALLE O'DONNELL / AVDA. MENENDEZ PELAYO Madrid,-3.6800522,40.421703
2019-10-21 15:00:00,2019-10-21 00:00:00,2019,Tarde,Laborable,Imprudencia,Leve,Despejado,RETIRO,CALLE O'DONNELL / AVDA. MENENDEZ PELAYO Madrid,-3.6800522,40.421703
2019-10-21 14:00:00,2019-10-21 00:00:00,2019,Tarde,Laborable,Colision,Leve,Despejado,TETUÁN,CALLE BRAVO MURILLO 155 Madrid,-3.703477899999999,40.4517376
2019-10-22 22:00:00,2019-10-22 00:00:00,2019,Noche,Laborable,Colision,Leve,Lluvia,CHAMBERÍ,CALLE FUENCARRAL 134 Madrid,-3.703003,40.43129649999999
2019-10-22 20:00:00,2019-10-22 00:00:00,2019,Tarde,Laborable,Colision,Moderada,Lluvia,TETUÁN,CALLE BRAVO MURILLO 120 Madrid,-3.7033957,40.4486645
2019-10-22 20:00:00,2019-10-22 00:00:00,2019,Tarde,Laborable,Colision,Leve,Lluvia,CENTRO,PASEO. PRADO 14 Madrid,-3.6944375,40.4142109
2019-10-22 20:00:00,2019-10-22 00:00:00,2019,Tarde,Laborable,Colision,Leve,Lluvia,SAN BLAS-CANILLEJAS,PLAZA. CRONOS / CALLE INOCENTA DE MESA Madrid,-3.618579199999999,40.44009940000001
2019-10-23 11:00:00,2019-10-23 00:00:00,2019,Mañana,Laborable,Caida,Leve,Lluvia,CHAMBERÍ,CALLE FERNANDEZ DE LA HOZ / CALLE GENERAL ARRANDO Madrid,-3.695094699999999,40.4317333
2019-10-23 11:00:00,2019-10-23 00:00:00,2019,Mañana,Laborable,Caida,Leve,Lluvia,CHAMBERÍ,CALLE FERNANDEZ DE LA HOZ / CALLE GENERAL ARRANDO Madrid,-3.695094699999999,40.4317333
2019-10-25 09:00:00,2019-10-25 00:00:00,2019,Mañana,Laborable,Caida,Leve,Despejado,CENTRO,CALLE ALCALA / CALLE MARQUES DE CUBAS Madrid,-3.695847600000001,40.418844
2019-10-26 04:00:00,2019-10-26 00:00:00,2019,Noche,Vispera,Caida,Moderada,Despejado,CHAMBERÍ,CALLE ELOY GONZALO 33 Madrid,-3.699857,40.4349761
2019-10-26 02:00:00,2019-10-26 00:00:00,2019,Noche,Vispera,Caida,Moderada,Despejado,RETIRO,AVDA. CIUDAD DE BARCELONA / CALLE DOCTOR ESQUERDO Madrid,-3.674932399999999,40.40132500000001
2019-10-27 22:00:00,2019-10-27 00:00:00,2019,Noche,Festivo,Caida,Leve,Despejado,CHAMARTÍN,CALLE LOPEZ DE HOYOS 66 Madrid,-3.6781301,40.44146729999999
2019-10-27 17:00:00,2019-10-27 00:00:00,2019,Tarde,Festivo,Caida,Leve,Lluvia,SALAMANCA,CALLE ALCALA 200A Madrid,-3.6637644,40.43031149999999
2019-10-27 01:00:00,2019-10-27 00:00:00,2019,Noche,Festivo,Imprudencia,Leve,Despejado,CHAMBERÍ,PLAZA. ALONSO MARTINEZ / CALLE SAGASTA Madrid,-3.6961151,40.4277377
2019-10-27 01:00:00,2019-10-27 00:00:00,2019,Noche,Festivo,Imprudencia,Leve,Despejado,CHAMBERÍ,PLAZA. ALONSO MARTINEZ / CALLE SAGASTA Madrid,-3.6961151,40.4277377
2019-10-28 16:00:00,2019-10-28 00:00:00,2019,Tarde,Laborable,Caida,Grave,Despejado,RETIRO,AVDA. MENENDEZ PELAYO 65 Madrid,-3.677063999999999,40.414327
2019-10-30 10:00:00,2019-10-30 00:00:00,2019,Mañana,Laborable,Colision,Leve,Despejado,CENTRO,RONDA. SEGOVIA / CALLE SEGOVIA Madrid,-3.716856899999999,40.4139115
2019-10-31 21:00:00,2019-10-31 00:00:00,2019,Noche,Vispera,Colision,Moderada,Despejado,CENTRO,PASEO. PRADO 40 Madrid,-3.6928934,40.41041209999999
2019-10-31 16:00:00,2019-10-31 00:00:00,2019,Tarde,Vispera,Caida,Moderada,Despejado,ARGANZUELA,CALLE EMBAJADORES 172 Madrid,-3.695666199999999,40.39528290000001
2018-01-01 15:00:00,2018-01-01 00:00:00,2018,Tarde,Festivo,Imprudencia,Leve,Despejado,CENTRO                        ,CALLE DE ALCALA NUM                                                                                  44 Madrid,-3.6960347,40.4184039
2018-01-02 12:00:00,2018-01-02 00:00:00,2018,Mañana,Laborable,Imprudencia,Leve,Despejado,SALAMANCA                     ,CALLE DE SERRANO - CALLE DEL CONDE DE ARANDA Madrid,-3.6884605,40.4218303
2018-01-03 13:00:00,2018-01-03 00:00:00,2018,Tarde,Laborable,Colision,Leve,Despejado,SALAMANCA                     ,PLAZA DE LA INDEPENDENCIA NUM                                                                        5 Madrid,-3.6882458,40.42062670000001
2018-01-03 22:00:00,2018-01-03 00:00:00,2018,Noche,Laborable,Colision,Leve,Despejado,LATINA                        ,CALLE DE SEGOVIA - PASEO DE EXTREMADURA Madrid,-3.713609200000001,40.4141644
2018-01-04 08:00:00,2018-01-04 00:00:00,2018,Mañana,Laborable,Caida,Moderada,Despejado,LATINA                        ,CALLE DE LOS YEBENES - CALLE DE SEPULVEDA Madrid,-3.753611100000001,40.3952778
2018-01-04 09:00:00,2018-01-04 00:00:00,2018,Mañana,Laborable,Caida,Leve,Lluvia,SAN BLAS                      ,AVENIDA DE CANILLEJAS A VICALVARO - CALLE DE LOS HERMANOS GARCIA NOBLEJAS Madrid,-3.6116667,40.42394609999999
2018-01-04 20:00:00,2018-01-04 00:00:00,2018,Tarde,Laborable,Imprudencia,Moderada,Despejado,CIUDAD LINEAL                 ,CALLE DE GERMAN PEREZ CARRASCO - CALLE DEL DOCTOR VALLEJO Madrid,-3.6433421,40.4363528
2018-01-05 16:00:00,2018-01-05 00:00:00,2018,Tarde,Vispera,Caida,Leve,Lluvia,RETIRO                        ,PASEO DEL FERNAN NUÑEZ Madrid,-3.680099299999999,40.416272600000006
2018-01-09 15:00:00,2018-01-09 00:00:00,2018,Tarde,Laborable,Caida,Leve,Despejado,ARGANZUELA                    ,CALLE DE LA BATALLA DEL SALADO NUM                                                                   1 Madrid,-3.6956025,40.4046448
2018-01-11 14:00:00,2018-01-11 00:00:00,2018,Tarde,Laborable,Colision,Leve,Despejado,CENTRO                        ,RONDA DE ATOCHA NUM                                                                                  2 Madrid,-3.6949571,40.4076469
2018-01-11 20:00:00,2018-01-11 00:00:00,2018,Tarde,Laborable,Colision,Grave,Despejado,RETIRO                        ,CALLE DE ALCALA - CALLE DE VELAZQUEZ Madrid,-3.6845087,40.420995
2018-01-12 11:00:00,2018-01-12 00:00:00,2018,Mañana,Laborable,Caida,Leve,Despejado,USERA                         ,PARQUE DE MADRID RIO (RIBERA OESTE) KM.                                                              6600 Madrid,-3.7037902,40.4167754
2018-01-13 01:00:00,2018-01-13 00:00:00,2018,Noche,Vispera,Caida,Leve,Despejado,SALAMANCA                     ,CALLE DE GOYA NUM                                                                                    66 Madrid,-3.677044,40.42470220000001
2018-01-15 09:00:00,2018-01-15 00:00:00,2018,Mañana,Laborable,Caida,Leve,Despejado,SALAMANCA                     ,CALLE DE GOYA NUM                                                                                    5 Madrid,-3.6889139,40.4257494
2018-01-15 16:00:00,2018-01-15 00:00:00,2018,Tarde,Laborable,Colision,Leve,Despejado,TETUAN                        ,CALLE DE LA INFANTA MERCEDES - CALLE DE SOR ANGELA DE LA CRUZ Madrid,-3.6965787,40.460099
2018-01-16 16:00:00,2018-01-16 00:00:00,2018,Tarde,Laborable,Colision,Leve,Despejado,CENTRO                        ,CALLE DE SEVILLA NUM                                                                                 6 Madrid,-3.6998224,40.4172367
2018-01-17 01:00:00,2018-01-17 00:00:00,2018,Noche,Laborable,Colision,Leve,Despejado,CHAMBERI                      ,CALLE DE GENOVA NUM                                                                                  23 Madrid,-3.6926968,40.4263673
2018-01-18 17:00:00,2018-01-18 00:00:00,2018,Tarde,Laborable,Caida,Grave,Despejado,SAN BLAS                      ,AVENIDA DE LUIS ARAGONÉS - CALLE DE SAN HILARIO Madrid,-3.6051202,40.4462893
2018-01-18 21:00:00,2018-01-18 00:00:00,2018,Noche,Laborable,Colision,Leve,Despejado,CHAMBERI                      ,CALLE DE GENOVA NUM                                                                                  7 Madrid,-3.6946158,40.42734420000001
2018-01-19 16:00:00,2018-01-19 00:00:00,2018,Tarde,Laborable,Colision,Leve,Despejado,CENTRO                        ,CALLE DE CARRANZA NUM                                                                                7 Madrid,-3.7031346,40.4290217
2018-01-21 13:00:00,2018-01-21 00:00:00,2018,Tarde,Festivo,Caida,Leve,Despejado,LATINA                        ,CALLE  VIA CARPETANA NUM                                                                             138 Madrid,-3.7339959,40.3993472
2018-01-22 13:00:00,2018-01-22 00:00:00,2018,Tarde,Laborable,Colision,Leve,Despejado,TETUAN                        ,CALLE DE LA INFANTA MERCEDES NUM                                                                     38 Madrid,-3.6975021,40.45769129999999
2018-01-24 09:00:00,2018-01-24 00:00:00,2018,Mañana,Laborable,Caida,Leve,Despejado,CHAMBERI                      ,CALLE DE SANTA ENGRACIA NUM                                                                          97 Madrid,-3.6996374,40.43651879999999
2018-01-24 19:00:00,2018-01-24 00:00:00,2018,Tarde,Laborable,Caida,Leve,Despejado,ARGANZUELA                    ,CALLE DE JAIME EL CONQUISTADOR - CALLE DEL PARROCO JULIO MORATE Madrid,-3.6981345,40.3972227
2018-01-24 20:00:00,2018-01-24 00:00:00,2018,Tarde,Laborable,Caida,Leve,Despejado,CHAMBERI                      ,CALLE DE SANTA ENGRACIA NUM                                                                          33 Madrid,-3.6974058,40.4314101
2018-01-24 20:00:00,2018-01-24 00:00:00,2018,Tarde,Laborable,Colision,Leve,Despejado,SAN BLAS                      ,CARRIL  ANILLO VERDE CICLISTA KM.                                                                    13000 Madrid,-3.764952199999999,40.4006459
2018-01-24 20:00:00,2018-01-24 00:00:00,2018,Tarde,Laborable,Colision,Leve,Despejado,SAN BLAS                      ,CARRIL  ANILLO VERDE CICLISTA KM.                                                                    13000 Madrid,-3.764952199999999,40.4006459
2018-01-24 22:00:00,2018-01-24 00:00:00,2018,Noche,Laborable,Caida,Leve,Despejado,ARGANZUELA                    ,PARQUE DE MADRID RIO (RIBERA ESTE) KM.                                                               6600 Madrid,-3.7037902,40.4167754
2018-01-27 15:00:00,2018-01-27 00:00:00,2018,Tarde,Vispera,Caida,Leve,Despejado,CARABANCHEL                   ,CARRIL  ANILLO VERDE CICLISTA KM.                                                                    32700 Madrid,-3.764952199999999,40.4006459
2018-01-28 16:00:00,2018-01-28 00:00:00,2018,Tarde,Festivo,Colision,Grave,Despejado,RETIRO                        ,PLAZA DEL MAESTRO VILLA Madrid,-3.6832654,40.41825
2018-01-28 16:00:00,2018-01-28 00:00:00,2018,Tarde,Festivo,Colision,Leve,Despejado,RETIRO                        ,PLAZA DEL MAESTRO VILLA Madrid,-3.6832654,40.41825
2018-01-28 22:00:00,2018-01-28 00:00:00,2018,Noche,Festivo,Colision,Leve,Despejado,CENTRO                        ,CALLE DE GENOVA - PLAZA DE ALONSO MARTINEZ Madrid,-3.695651,40.4277643
2018-01-29 19:00:00,2018-01-29 00:00:00,2018,Tarde,Laborable,Colision,Leve,Despejado,CHAMARTIN                     ,CALLE DE BALBINA VALVERDE - CALLE DE JOAQUIN COSTA Madrid,-3.6897367,40.4462506
2018-01-30 13:00:00,2018-01-30 00:00:00,2018,Tarde,Laborable,Caida,Leve,Despejado,CENTRO                        ,CALLE DEL ESPEJO NUM                                                                                 12 Madrid,-3.709692500000001,40.4171407
2018-01-31 18:00:00,2018-01-31 00:00:00,2018,Tarde,Laborable,Caida,Leve,Despejado,MORATALAZ                     ,CALLE  ARROYO DE LA MEDIA LEGUA NUM                                                                  8 Madrid,-3.6573301,40.4078542
2018-02-01 15:00:00,2018-02-01 00:00:00,2018,Tarde,Laborable,Colision,Leve,Despejado,CENTRO                        ,PLAZA DE TIRSO DE MOLINA NUM                                                                         12 Madrid,-3.7054316,40.4121929
2018-02-01 19:00:00,2018-02-01 00:00:00,2018,Tarde,Laborable,Colision,Leve,Lluvia,VICALVARO                     ,CALLE DE CORDEL DE PAVONES NUM                                                                       44 Madrid,-3.6196191,40.3980627
2018-02-02 13:00:00,2018-02-02 00:00:00,2018,Tarde,Laborable,Colision,Leve,Despejado,CHAMBERI                      ,GLORIETA DE CUATRO CAMINOS NUM                                                                       1 Madrid,-3.7043669,40.446587
2018-02-02 19:00:00,2018-02-02 00:00:00,2018,Tarde,Laborable,Colision,Leve,Despejado,SALAMANCA                     ,CALLE DE VILLANUEVA NUM                                                                              2 Madrid,-3.690751600000001,40.422876
2018-02-02 20:00:00,2018-02-02 00:00:00,2018,Tarde,Laborable,Caida,Leve,Despejado,CHAMBERI                      ,CALLE DE ELOY GONZALO - GLORIETA DE QUEVEDO Madrid,-3.7040422999999993,40.43356770000001
2018-02-04 05:00:00,2018-02-04 00:00:00,2018,Noche,Festivo,Colision,Leve,Lluvia,SALAMANCA                     ,CALLE DE VELAZQUEZ NUM                                                                               30 Madrid,-3.683895799999999,40.42476370000001
2018-02-05 17:00:00,2018-02-05 00:00:00,2018,Tarde,Laborable,Colision,Leve,Lluvia,RETIRO                        ,AVENIDA DE LA ALBUFERA - AVENIDA DE LA CIUDAD DE BARCELONA Madrid,-3.6695215,40.39849359999999
2018-02-06 09:00:00,2018-02-06 00:00:00,2018,Mañana,Laborable,Colision,Leve,Despejado,SALAMANCA                     ,CALLE DE ALCALA - CALLE DE O'DONNELL Madrid,-3.6829013,40.4214327
2018-02-06 12:00:00,2018-02-06 00:00:00,2018,Mañana,Laborable,Caida,Leve,Despejado,CHAMBERI                      ,CALLE DE ALMAGRO NUM                                                                                 22 Madrid,-3.6937637,40.42918
2018-02-06 17:00:00,2018-02-06 00:00:00,2018,Tarde,Laborable,Caida,Leve,Lluvia,CIUDAD LINEAL                 ,CALLE DE GARCIA QUINTANILLA - CALLE DEL GENERAL ARANAZ Madrid,-3.6417377,40.445417
2018-02-07 19:00:00,2018-02-07 00:00:00,2018,Tarde,Laborable,Colision,Leve,Despejado,CENTRO                        ,PASEO DEL PRADO - PLAZA DE CANOVAS DEL CASTILLO Madrid,-3.6935287,40.41530820000001
2018-02-08 18:00:00,2018-02-08 00:00:00,2018,Tarde,Laborable,Colision,Leve,Despejado,SALAMANCA                     ,PASEO DE LA CASTELLANA NUM                                                                           48 Madrid,-3.6875836,40.4346717
2018-02-08 19:00:00,2018-02-08 00:00:00,2018,Tarde,Laborable,Caida,Leve,Despejado,CENTRO                        ,CALLE  GRAN VIA NUM                                                                                  32 Madrid,-3.703471,40.420417
2018-02-09 12:00:00,2018-02-09 00:00:00,2018,Mañana,Laborable,Caida,Leve,Despejado,SALAMANCA                     ,CALLE DE VELAZQUEZ NUM                                                                               28 Madrid,-3.6837571,40.42458920000001
2018-02-10 19:00:00,2018-02-10 00:00:00,2018,Tarde,Vispera,Caida,Leve,Despejado,CENTRO                        ,CALLE DE ARGUMOSA NUM                                                                                28 Madrid,-3.6965382,40.4073844
2018-02-12 13:00:00,2018-02-12 00:00:00,2018,Tarde,Laborable,Colision,Leve,Despejado,CENTRO                        ,CALLE  GRAN VIA NUM                                                                                  37 Madrid,-3.7050805,40.4199342
2018-02-13 08:00:00,2018-02-13 00:00:00,2018,Mañana,Laborable,Imprudencia,Moderada,Despejado,CHAMBERI                      ,CALLE DE JOSE ABASCAL - CALLE DE SANTA ENGRACIA Madrid,-3.700269699999999,40.4384865
2018-02-14 18:00:00,2018-02-14 00:00:00,2018,Tarde,Laborable,Caida,Leve,Despejado,CHAMBERI                      ,CALLE DE BRAVO MURILLO NUM                                                                           9 Madrid,-3.7046841,40.4346545
2018-02-14 21:00:00,2018-02-14 00:00:00,2018,Noche,Laborable,Colision,Moderada,Despejado,SALAMANCA                     ,CALLE DE GOYA - PASEO DE LA CASTELLANA Madrid,-3.6899313,40.42560770000001
2018-02-15 04:00:00,2018-02-15 00:00:00,2018,Noche,Laborable,Caida,Leve,Despejado,RETIRO                        ,CALLE DE ALFONSO XII NUM                                                                             68 Madrid,-3.688798,40.407872
2018-02-15 18:00:00,2018-02-15 00:00:00,2018,Tarde,Laborable,Colision,Leve,Despejado,MONCLOA-ARAVACA               ,CALLE DE FERRAZ NUM                                                                                  5 Madrid,-3.7170941,40.4257639
2018-02-16 09:00:00,2018-02-16 00:00:00,2018,Mañana,Laborable,Caida,Leve,Despejado,CENTRO                        ,PLAZA DE LA PUERTA DEL SOL NUM                                                                       1 Madrid,-3.7024276,40.4172093
2018-02-18 12:00:00,2018-02-18 00:00:00,2018,Mañana,Festivo,Colision,Leve,Despejado,VILLA DE VALLECAS             ,AVENIDA DEL MAYORAZGO - CALLE DE VILLAMANTA Madrid,-3.6235249,40.365888
2018-02-21 09:00:00,2018-02-21 00:00:00,2018,Mañana,Laborable,Caida,Leve,Despejado,TETUAN                        ,CALLE DE RAIMUNDO FERNANDEZ VILLAVERDE - PASEO DE LA CASTELLANA Madrid,-3.6913488,40.4463472
2018-02-23 13:00:00,2018-02-23 00:00:00,2018,Tarde,Laborable,Imprudencia,Moderada,Despejado,CENTRO                        ,CALLE DE LA BENEFICENCIA NUM                                                                         8 Madrid,-3.6995541,40.4259384
2018-02-25 12:00:00,2018-02-25 00:00:00,2018,Mañana,Festivo,Colision,Grave,Despejado,SAN BLAS                      ,AVENIDA DE CANILLEJAS A VICALVARO NUM                                                                1 Madrid,-3.6166227,40.44357369999999
2018-02-26 19:00:00,2018-02-26 00:00:00,2018,Tarde,Laborable,Caida,Leve,Despejado,CHAMBERI                      ,CALLE DE ALONSO CANO - CALLE DE CRISTOBAL BORDIU Madrid,-3.6974045,40.44295959999999
2018-02-26 21:00:00,2018-02-26 00:00:00,2018,Noche,Laborable,Colision,Leve,Despejado,RETIRO                        ,CALLE DEL DOCTOR VELASCO NUM                                                                         4 Madrid,-3.6895984,40.4084215
2018-02-27 13:00:00,2018-02-27 00:00:00,2018,Tarde,Laborable,Colision,Leve,Lluvia,CENTRO                        ,CALLE DE LA CAVA BAJA NUM                                                                            25 Madrid,-3.7092505,40.412306
2018-02-28 02:00:00,2018-02-28 00:00:00,2018,Noche,Laborable,Colision,Leve,Lluvia,CENTRO                        ,CALLE DE TRIBULETE - PLAZA DE LAVAPIES Madrid,-3.7020914,40.407968200000006
2018-03-02 16:00:00,2018-03-02 00:00:00,2018,Tarde,Laborable,Colision,Moderada,Lluvia,CARABANCHEL                   ,AVENIDA DE OPORTO - CALLE DE FRANCISCO DE ICAZA Madrid,-3.7267304,40.385929
2018-03-02 16:00:00,2018-03-02 00:00:00,2018,Tarde,Laborable,Colision,Leve,Lluvia,CARABANCHEL                   ,AVENIDA DE OPORTO - CALLE DE FRANCISCO DE ICAZA Madrid,-3.7267304,40.385929
2018-03-02 18:00:00,2018-03-02 00:00:00,2018,Tarde,Laborable,Colision,Leve,Lluvia,RETIRO                        ,PLAZA DEL DOCTOR LAGUNA NUM                                                                          13 Madrid,-3.6735788,40.414843
2018-03-03 06:00:00,2018-03-03 00:00:00,2018,Mañana,Vispera,Colision,Leve,Lluvia,CENTRO                        ,CALLE DE ALCALA NUM                                                                                  45 Madrid,-3.6962013,40.419184
2018-03-09 13:00:00,2018-03-09 00:00:00,2018,Tarde,Laborable,Colision,Leve,Lluvia,SALAMANCA                     ,CALLE DE ALCALA NUM                                                                                  198 Madrid,-3.6641757,40.4301099
2018-03-09 22:00:00,2018-03-09 00:00:00,2018,Noche,Laborable,Colision,Leve,Lluvia,SALAMANCA                     ,CALLE DE ALCALA - PLAZA DE MANUEL BECERRA Madrid,-3.669169600000001,40.42796060000001
2018-03-10 21:00:00,2018-03-10 00:00:00,2018,Noche,Vispera,Caida,Grave,Lluvia,SALAMANCA                     ,PLAZA DE LA INDEPENDENCIA NUM                                                                        4 Madrid,-3.6889989,40.4206929
2018-03-11 14:00:00,2018-03-11 00:00:00,2018,Tarde,Festivo,Colision,Leve,Lluvia,CENTRO                        ,PLAZA DEL EMPERADOR CARLOS V NUM                                                                     8 Madrid,-3.693189,40.4084654
2018-03-11 18:00:00,2018-03-11 00:00:00,2018,Tarde,Festivo,Caida,Leve,Despejado,CENTRO                        ,CALLE DE CARRETAS NUM                                                                                11 Madrid,-3.7030524,40.4161566
2018-03-11 18:00:00,2018-03-11 00:00:00,2018,Tarde,Festivo,Caida,Leve,Lluvia,CENTRO                        ,PLAZA DE TIRSO DE MOLINA NUM                                                                         10 Madrid,-3.7051443,40.4119816
2018-03-12 20:00:00,2018-03-12 00:00:00,2018,Tarde,Laborable,Colision,Leve,Despejado,ARGANZUELA                    ,GLORIETA DE LAS PIRAMIDES - PASEO  IMPERIAL Madrid,-3.7148846,40.4013497
2018-03-13 12:00:00,2018-03-13 00:00:00,2018,Mañana,Laborable,Imprudencia,Moderada,Despejado,CHAMARTIN                     ,CALLE DE GUSTAVO FERNANDEZ BALBUENA NUM                                                              11 Madrid,-3.667909099999999,40.449654
2018-03-14 13:00:00,2018-03-14 00:00:00,2018,Tarde,Laborable,Caida,Leve,Lluvia,CENTRO                        ,PLAZA DE LA PUERTA DEL SOL NUM                                                                       4 Madrid,-3.702636199999999,40.4165078
2018-03-14 19:00:00,2018-03-14 00:00:00,2018,Tarde,Laborable,Caida,Leve,Lluvia,CENTRO                        ,CALLE DE CARRANZA NUM                                                                                25 Madrid,-3.7049219,40.4292413
2018-03-15 22:00:00,2018-03-15 00:00:00,2018,Noche,Laborable,Caida,Leve,Despejado,RETIRO                        ,CALLE DE CLAUDIO MOYANO NUM                                                                          2 Madrid,-3.6919233,40.4097631
2018-03-16 11:00:00,2018-03-16 00:00:00,2018,Mañana,Laborable,Caida,Grave,Despejado,USERA                         ,CAMINO DE PERALES NUM                                                                                20 Madrid,-3.6925053,40.38147160000001
2018-03-16 14:00:00,2018-03-16 00:00:00,2018,Tarde,Laborable,Caida,Leve,Despejado,RETIRO                        ,PASEO DEL FERNAN NUÑEZ Madrid,-3.680099299999999,40.416272600000006
2018-03-16 15:00:00,2018-03-16 00:00:00,2018,Tarde,Laborable,Caida,Leve,Lluvia,TETUAN                        ,PASEO DE LA DIRECCION NUM                                                                            285 Madrid,-3.7053791,40.4695037
2018-03-20 11:00:00,2018-03-20 00:00:00,2018,Mañana,Laborable,Colision,Leve,Despejado,SALAMANCA                     ,CALLE DE SERRANO NUM                                                                                 91 Madrid,-3.6866697,40.43711679999999
2018-03-27 18:00:00,2018-03-27 00:00:00,2018,Tarde,Laborable,Caida,Grave,Despejado,SAN BLAS                      ,CALLE DE ESTOCOLMO - CARRIL  ANILLO VERDE CICLISTA Madrid,-3.6004544000000003,40.429474
2018-03-28 13:00:00,2018-03-28 00:00:00,2018,Tarde,Vispera,Colision,Leve,Despejado,ARGANZUELA                    ,PARQUE DE MADRID RIO (RIBERA ESTE) KM.                                                               6000 Madrid,-3.7037902,40.4167754
2018-03-28 13:00:00,2018-03-28 00:00:00,2018,Tarde,Vispera,Colision,Leve,Despejado,ARGANZUELA                    ,PARQUE DE MADRID RIO (RIBERA ESTE) KM.                                                               6000 Madrid,-3.7037902,40.4167754
2018-04-02 15:00:00,2018-04-02 00:00:00,2018,Tarde,Laborable,Imprudencia,Moderada,Despejado,RETIRO                        ,AVENIDA DE LA CIUDAD DE BARCELONA NUM                                                                144 Madrid,-3.6783957,40.4029633
2018-04-02 18:00:00,2018-04-02 00:00:00,2018,Tarde,Laborable,Imprudencia,Moderada,Despejado,RETIRO                        ,PASEO DE LA INFANTA ISABEL - PLAZA DEL EMPERADOR CARLOS V Madrid,-3.688863999999999,40.4072266
2018-04-03 08:00:00,2018-04-03 00:00:00,2018,Mañana,Laborable,Colision,Grave,Despejado,PUENTE DE VALLECAS            ,AVENIDA DE LA ALBUFERA NUM                                                                           7 Madrid,-3.6683167,40.39798070000001
2018-04-04 21:00:00,2018-04-04 00:00:00,2018,Noche,Laborable,Colision,Leve,Despejado,CENTRO                        ,CALLE  MAYOR - CALLE DE BAILEN Madrid,-3.7135106,40.41505460000001
